{
"type": "FeatureCollection",
"crs": { "type": "name", "properties": { "name": "urn:ogc:def:crs:OGC:1.3:CRS84" } },
"features": [
{ "type": "Feature", "properties": { "description_de": "Briefeinwurf Zürich, BE Bushaltestelle Glaubtenstrasse", "address_street": "Wehntalerstrasse 374", "id": "003BE_00325052", "poityp_en": "Letterbox", "address_kantoncode": "ZH", "groupename_de": null, "address_zip": "8046", "address_gemeindeid": "261", "address_countrycode": "CH", "service_de": null, "address_city": "Zürich", "poityp_de": "Briefeinwurf" }, "geometry": { "type": "Point", "coordinates": [ 8.52014398, 47.41407433 ] } },
{ "type": "Feature", "properties": { "description_de": "Briefeinwurf Zürich, Bleicherweg", "address_street": "Bleicherweg 19", "id": "003BE_00324763", "poityp_en": "Letterbox", "address_kantoncode": "ZH", "groupename_de": null, "address_zip": "8002", "address_gemeindeid": "261", "address_countrycode": "CH", "service_de": null, "address_city": "Zürich", "poityp_de": "Briefeinwurf" }, "geometry": { "type": "Point", "coordinates": [ 8.53569237, 47.36781255 ] } },
{ "type": "Feature", "properties": { "description_de": "Briefeinwurf Zürich, Badenerstrasse", "address_street": "Badenerstrasse 651A", "id": "003BE_00324764", "poityp_en": "Letterbox", "address_kantoncode": "ZH", "groupename_de": null, "address_zip": "8048", "address_gemeindeid": "261", "address_countrycode": "CH", "service_de": null, "address_city": "Zürich", "poityp_de": "Briefeinwurf" }, "geometry": { "type": "Point", "coordinates": [ 8.48910131, 47.38706693 ] } },
{ "type": "Feature", "properties": { "description_de": "Briefeinwurf Zürich, Brunngasse", "address_street": "Brunngasse 14", "id": "003BE_00329115", "poityp_en": "Letterbox", "address_kantoncode": "ZH", "groupename_de": null, "address_zip": "8001", "address_gemeindeid": "261", "address_countrycode": "CH", "service_de": null, "address_city": "Zürich", "poityp_de": "Briefeinwurf" }, "geometry": { "type": "Point", "coordinates": [ 8.54484591, 47.37333376 ] } },
{ "type": "Feature", "properties": { "description_de": "Briefeinwurf Zürich, Bushaltestelle Brunau \/ Mutschellenstrasse", "address_street": "Waffenplatzstrasse 88", "id": "003BE_00329121", "poityp_en": "Letterbox", "address_kantoncode": "ZH", "groupename_de": null, "address_zip": "8002", "address_gemeindeid": "261", "address_countrycode": "CH", "service_de": null, "address_city": "Zürich", "poityp_de": "Briefeinwurf" }, "geometry": { "type": "Point", "coordinates": [ 8.52692701, 47.35507461 ] } },
{ "type": "Feature", "properties": { "description_de": "Briefeinwurf Zürich, Bellariastrasse", "address_street": "Bellariastrasse 85", "id": "003BE_00329129", "poityp_en": "Letterbox", "address_kantoncode": "ZH", "groupename_de": null, "address_zip": "8038", "address_gemeindeid": "261", "address_countrycode": "CH", "service_de": null, "address_city": "Zürich", "poityp_de": "Briefeinwurf" }, "geometry": { "type": "Point", "coordinates": [ 8.52902349, 47.3466443 ] } },
{ "type": "Feature", "properties": { "description_de": "Briefeinwurf Zürich, Tramhaltestelle Bahnhof Wollishofen", "address_street": "Seestrasse 336", "id": "003BE_00329136", "poityp_en": "Letterbox", "address_kantoncode": "ZH", "groupename_de": null, "address_zip": "8038", "address_gemeindeid": "261", "address_countrycode": "CH", "service_de": null, "address_city": "Zürich", "poityp_de": "Briefeinwurf" }, "geometry": { "type": "Point", "coordinates": [ 8.53280073, 47.34690362 ] } },
{ "type": "Feature", "properties": { "description_de": "Briefeinwurf Zürich, Leimbachstrasse", "address_street": "Leimbachstrasse 200", "id": "003BE_00329141", "poityp_en": "Letterbox", "address_kantoncode": "ZH", "groupename_de": null, "address_zip": "8041", "address_gemeindeid": "261", "address_countrycode": "CH", "service_de": null, "address_city": "Zürich", "poityp_de": "Briefeinwurf" }, "geometry": { "type": "Point", "coordinates": [ 8.51436107, 47.32605409 ] } },
{ "type": "Feature", "properties": { "description_de": "Briefeinwurf Zürich, Morgentalstrasse", "address_street": "Morgentalstrasse 41", "id": "003BE_00329146", "poityp_en": "Letterbox", "address_kantoncode": "ZH", "groupename_de": null, "address_zip": "8038", "address_gemeindeid": "261", "address_countrycode": "CH", "service_de": null, "address_city": "Zürich", "poityp_de": "Briefeinwurf" }, "geometry": { "type": "Point", "coordinates": [ 8.52656818, 47.34436018 ] } },
{ "type": "Feature", "properties": { "description_de": "Briefeinwurf Zürich, Besenrainstrasse", "address_street": "Besenrainstrasse 23", "id": "003BE_00329147", "poityp_en": "Letterbox", "address_kantoncode": "ZH", "groupename_de": null, "address_zip": "8038", "address_gemeindeid": "261", "address_countrycode": "CH", "service_de": null, "address_city": "Zürich", "poityp_de": "Briefeinwurf" }, "geometry": { "type": "Point", "coordinates": [ 8.52779414, 47.34574469 ] } },
{ "type": "Feature", "properties": { "description_de": "Briefeinwurf Zürich, Nidelbadstrasse", "address_street": "Nidelbadstrasse 79", "id": "003BE_00329154", "poityp_en": "Letterbox", "address_kantoncode": "ZH", "groupename_de": null, "address_zip": "8038", "address_gemeindeid": "261", "address_countrycode": "CH", "service_de": null, "address_city": "Zürich", "poityp_de": "Briefeinwurf" }, "geometry": { "type": "Point", "coordinates": [ 8.53505988, 47.33305557 ] } },
{ "type": "Feature", "properties": { "description_de": "Briefeinwurf Zürich, Seestrasse", "address_street": "Seestrasse 241", "id": "003BE_00329160", "poityp_en": "Letterbox", "address_kantoncode": "ZH", "groupename_de": null, "address_zip": "8038", "address_gemeindeid": "261", "address_countrycode": "CH", "service_de": null, "address_city": "Zürich", "poityp_de": "Briefeinwurf" }, "geometry": { "type": "Point", "coordinates": [ 8.53211328, 47.35210667 ] } },
{ "type": "Feature", "properties": { "description_de": "Briefeinwurf Zürich, Tram-\/Bushaltestelle Bahnhof Enge", "address_street": "Seestrasse 25", "id": "003BE_00329162", "poityp_en": "Letterbox", "address_kantoncode": "ZH", "groupename_de": null, "address_zip": "8002", "address_gemeindeid": "261", "address_countrycode": "CH", "service_de": null, "address_city": "Zürich", "poityp_de": "Briefeinwurf" }, "geometry": { "type": "Point", "coordinates": [ 8.53160839, 47.36377104 ] } },
{ "type": "Feature", "properties": { "description_de": "Briefeinwurf Zürich, Enge Hafen, Schiffstation", "address_street": "Mythenquai 21", "id": "003BE_00329163", "poityp_en": "Letterbox", "address_kantoncode": "ZH", "groupename_de": null, "address_zip": "8002", "address_gemeindeid": "261", "address_countrycode": "CH", "service_de": null, "address_city": "Zürich", "poityp_de": "Briefeinwurf" }, "geometry": { "type": "Point", "coordinates": [ 8.53562095, 47.36118647 ] } },
{ "type": "Feature", "properties": { "description_de": "Briefeinwurf Zürich, BE Treffpunkt Haupthalle Hauptbahnhof 3", "address_street": "Bahnhofhalle", "id": "003BE_00328787", "poityp_en": "Letterbox", "address_kantoncode": "ZH", "groupename_de": null, "address_zip": "8001", "address_gemeindeid": "261", "address_countrycode": "CH", "service_de": null, "address_city": "Zürich", "poityp_de": "Briefeinwurf" }, "geometry": { "type": "Point", "coordinates": [ 8.53993396, 47.37798082 ] } },
{ "type": "Feature", "properties": { "description_de": "Briefeinwurf Zürich, Tödistrasse", "address_street": "Tödistrasse 42", "id": "003BE_00328819", "poityp_en": "Letterbox", "address_kantoncode": "ZH", "groupename_de": null, "address_zip": "8002", "address_gemeindeid": "261", "address_countrycode": "CH", "service_de": null, "address_city": "Zürich", "poityp_de": "Briefeinwurf" }, "geometry": { "type": "Point", "coordinates": [ 8.53393679, 47.367106 ] } },
{ "type": "Feature", "properties": { "description_de": "Briefeinwurf Zürich, Brandschenkestrasse", "address_street": "Brandschenkestrasse 24", "id": "003BE_00328821", "poityp_en": "Letterbox", "address_kantoncode": "ZH", "groupename_de": null, "address_zip": "8001", "address_gemeindeid": "261", "address_countrycode": "CH", "service_de": null, "address_city": "Zürich", "poityp_de": "Briefeinwurf" }, "geometry": { "type": "Point", "coordinates": [ 8.53236827, 47.36925631 ] } },
{ "type": "Feature", "properties": { "description_de": "Briefeinwurf Zürich, Langensteinenstrasse", "address_street": "Langensteinenstrasse 40", "id": "003BE_00332500", "poityp_en": "Letterbox", "address_kantoncode": "ZH", "groupename_de": null, "address_zip": "8057", "address_gemeindeid": "261", "address_countrycode": "CH", "service_de": null, "address_city": "Zürich", "poityp_de": "Briefeinwurf" }, "geometry": { "type": "Point", "coordinates": [ 8.54721479, 47.39377865 ] } },
{ "type": "Feature", "properties": { "description_de": "Briefeinwurf Zürich, Gemeindestrasse", "address_street": "Gemeindestrasse 48", "id": "003BE_00332534", "poityp_en": "Letterbox", "address_kantoncode": "ZH", "groupename_de": null, "address_zip": "8032", "address_gemeindeid": "261", "address_countrycode": "CH", "service_de": null, "address_city": "Zürich", "poityp_de": "Briefeinwurf" }, "geometry": { "type": "Point", "coordinates": [ 8.55582535, 47.36933229 ] } },
{ "type": "Feature", "properties": { "description_de": "Briefeinwurf Zürich, Bushaltestelle Untermoosstrasse", "address_street": "Altstetterstrasse 263", "id": "003BE_00333106", "poityp_en": "Letterbox", "address_kantoncode": "ZH", "groupename_de": null, "address_zip": "8047", "address_gemeindeid": "261", "address_countrycode": "CH", "service_de": null, "address_city": "Zürich", "poityp_de": "Briefeinwurf" }, "geometry": { "type": "Point", "coordinates": [ 8.48351331, 47.3801716 ] } },
{ "type": "Feature", "properties": { "description_de": "Briefeinwurf Zürich, Alterszentrum Hottingen", "address_street": "Freiestrasse 71", "id": "003BE_00332106", "poityp_en": "Letterbox", "address_kantoncode": "ZH", "groupename_de": null, "address_zip": "8032", "address_gemeindeid": "261", "address_countrycode": "CH", "service_de": null, "address_city": "Zürich", "poityp_de": "Briefeinwurf" }, "geometry": { "type": "Point", "coordinates": [ 8.55747998, 47.36804975 ] } },
{ "type": "Feature", "properties": { "description_de": "Briefeinwurf Zürich, Max-Högger-Strasse", "address_street": "Max-Högger-Strasse 2", "id": "003BE_00332110", "poityp_en": "Letterbox", "address_kantoncode": "ZH", "groupename_de": null, "address_zip": "8048", "address_gemeindeid": "261", "address_countrycode": "CH", "service_de": null, "address_city": "Zürich", "poityp_de": "Briefeinwurf" }, "geometry": { "type": "Point", "coordinates": [ 8.48947382, 47.39353458 ] } },
{ "type": "Feature", "properties": { "description_de": "Briefeinwurf Zürich, Tramhaltestelle Tüffenwies", "address_street": "Hardhof 2", "id": "003BE_00332112", "poityp_en": "Letterbox", "address_kantoncode": "ZH", "groupename_de": null, "address_zip": "8064", "address_gemeindeid": "261", "address_countrycode": "CH", "service_de": null, "address_city": "Zürich", "poityp_de": "Briefeinwurf" }, "geometry": { "type": "Point", "coordinates": [ 8.49489246, 47.39732248 ] } },
{ "type": "Feature", "properties": { "description_de": "Briefeinwurf Zürich, Dachslernstrasse", "address_street": "Dachslernstrasse 88", "id": "003BE_00332116", "poityp_en": "Letterbox", "address_kantoncode": "ZH", "groupename_de": null, "address_zip": "8048", "address_gemeindeid": "261", "address_countrycode": "CH", "service_de": null, "address_city": "Zürich", "poityp_de": "Briefeinwurf" }, "geometry": { "type": "Point", "coordinates": [ 8.47309113, 47.39157484 ] } },
{ "type": "Feature", "properties": { "description_de": "Briefeinwurf Zürich, Bushaltestelle Dunkelhölzli", "address_street": "Rautistrasse 385", "id": "003BE_00332118", "poityp_en": "Letterbox", "address_kantoncode": "ZH", "groupename_de": null, "address_zip": "8048", "address_gemeindeid": "261", "address_countrycode": "CH", "service_de": null, "address_city": "Zürich", "poityp_de": "Briefeinwurf" }, "geometry": { "type": "Point", "coordinates": [ 8.47000984, 47.38875186 ] } },
{ "type": "Feature", "properties": { "description_de": "Briefeinwurf Zürich, Eugen-Huber-Strasse", "address_street": "Eugen-Huber-Strasse 97", "id": "003BE_00332119", "poityp_en": "Letterbox", "address_kantoncode": "ZH", "groupename_de": null, "address_zip": "8048", "address_gemeindeid": "261", "address_countrycode": "CH", "service_de": null, "address_city": "Zürich", "poityp_de": "Briefeinwurf" }, "geometry": { "type": "Point", "coordinates": [ 8.47622659, 47.3874324 ] } },
{ "type": "Feature", "properties": { "description_de": "Briefeinwurf Zürich, Bushaltestelle Kappeli", "address_street": "Buckhauserstrasse 41", "id": "003BE_00332123", "poityp_en": "Letterbox", "address_kantoncode": "ZH", "groupename_de": null, "address_zip": "8048", "address_gemeindeid": "261", "address_countrycode": "CH", "service_de": null, "address_city": "Zürich", "poityp_de": "Briefeinwurf" }, "geometry": { "type": "Point", "coordinates": [ 8.49438862, 47.38412413 ] } },
{ "type": "Feature", "properties": { "description_de": "Briefeinwurf Zürich, Ecke Baslerstrasse", "address_street": "Mürtschenstrasse 39", "id": "003BE_00332126", "poityp_en": "Letterbox", "address_kantoncode": "ZH", "groupename_de": null, "address_zip": "8048", "address_gemeindeid": "261", "address_countrycode": "CH", "service_de": null, "address_city": "Zürich", "poityp_de": "Briefeinwurf" }, "geometry": { "type": "Point", "coordinates": [ 8.49440576, 47.38713013 ] } },
{ "type": "Feature", "properties": { "description_de": "Briefeinwurf Zürich, Bahnhof Altstetten", "address_street": "Altstetterplatz 12", "id": "003BE_00332127", "poityp_en": "Letterbox", "address_kantoncode": "ZH", "groupename_de": null, "address_zip": "8048", "address_gemeindeid": "261", "address_countrycode": "CH", "service_de": null, "address_city": "Zürich", "poityp_de": "Briefeinwurf" }, "geometry": { "type": "Point", "coordinates": [ 8.48914489, 47.39129511 ] } },
{ "type": "Feature", "properties": { "description_de": "Briefeinwurf Zürich, Tram-\/Bushaltestelle Farbhof", "address_street": "Badenerstrasse 751", "id": "003BE_00332129", "poityp_en": "Letterbox", "address_kantoncode": "ZH", "groupename_de": null, "address_zip": "8048", "address_gemeindeid": "261", "address_countrycode": "CH", "service_de": null, "address_city": "Zürich", "poityp_de": "Briefeinwurf" }, "geometry": { "type": "Point", "coordinates": [ 8.47896503, 47.39093204 ] } },
{ "type": "Feature", "properties": { "description_de": "Briefeinwurf Zürich, Tramhaltestelle Luegisland", "address_street": "Winterthurerstrasse 659", "id": "003BE_00332133", "poityp_en": "Letterbox", "address_kantoncode": "ZH", "groupename_de": null, "address_zip": "8051", "address_gemeindeid": "261", "address_countrycode": "CH", "service_de": null, "address_city": "Zürich", "poityp_de": "Briefeinwurf" }, "geometry": { "type": "Point", "coordinates": [ 8.58122879, 47.40604694 ] } },
{ "type": "Feature", "properties": { "description_de": "Briefeinwurf Zürich, Ueberlandstrasse", "address_street": "Ueberlandstrasse 483", "id": "003BE_00332134", "poityp_en": "Letterbox", "address_kantoncode": "ZH", "groupename_de": null, "address_zip": "8051", "address_gemeindeid": "261", "address_countrycode": "CH", "service_de": null, "address_city": "Zürich", "poityp_de": "Briefeinwurf" }, "geometry": { "type": "Point", "coordinates": [ 8.59398244, 47.40553339 ] } },
{ "type": "Feature", "properties": { "description_de": "Briefeinwurf Zürich, Bushaltestelle Frohburg", "address_street": "Winterthurerstrasse 390", "id": "003BE_00332142", "poityp_en": "Letterbox", "address_kantoncode": "ZH", "groupename_de": null, "address_zip": "8051", "address_gemeindeid": "261", "address_countrycode": "CH", "service_de": null, "address_city": "Zürich", "poityp_de": "Briefeinwurf" }, "geometry": { "type": "Point", "coordinates": [ 8.56241126, 47.40427135 ] } },
{ "type": "Feature", "properties": { "description_de": "Briefeinwurf Zürich, Ecke Neuenbrunnenstrasse", "address_street": "Hürststrasse 61", "id": "003BE_00332146", "poityp_en": "Letterbox", "address_kantoncode": "ZH", "groupename_de": null, "address_zip": "8046", "address_gemeindeid": "261", "address_countrycode": "CH", "service_de": null, "address_city": "Zürich", "poityp_de": "Briefeinwurf" }, "geometry": { "type": "Point", "coordinates": [ 8.52764727, 47.41505993 ] } },
{ "type": "Feature", "properties": { "description_de": "Briefeinwurf Zürich, Gorwiden", "address_street": "Gorwiden 2", "id": "003BE_00332155", "poityp_en": "Letterbox", "address_kantoncode": "ZH", "groupename_de": null, "address_zip": "8057", "address_gemeindeid": "261", "address_countrycode": "CH", "service_de": null, "address_city": "Zürich", "poityp_de": "Briefeinwurf" }, "geometry": { "type": "Point", "coordinates": [ 8.55092822, 47.40408287 ] } },
{ "type": "Feature", "properties": { "description_de": "Briefeinwurf Zürich, Bushaltestelle Hertensteinstrasse", "address_street": "Seebacherstrasse 55", "id": "003BE_00332159", "poityp_en": "Letterbox", "address_kantoncode": "ZH", "groupename_de": null, "address_zip": "8052", "address_gemeindeid": "261", "address_countrycode": "CH", "service_de": null, "address_city": "Zürich", "poityp_de": "Briefeinwurf" }, "geometry": { "type": "Point", "coordinates": [ 8.54339182, 47.4228604 ] } },
{ "type": "Feature", "properties": { "description_de": "Briefeinwurf Zürich, Bushaltestelle Himmeri", "address_street": "Birchstrasse 255", "id": "003BE_00332160", "poityp_en": "Letterbox", "address_kantoncode": "ZH", "groupename_de": null, "address_zip": "8052", "address_gemeindeid": "261", "address_countrycode": "CH", "service_de": null, "address_city": "Zürich", "poityp_de": "Briefeinwurf" }, "geometry": { "type": "Point", "coordinates": [ 8.53869326, 47.42003127 ] } },
{ "type": "Feature", "properties": { "description_de": "Briefeinwurf Zürich, Bushaltestelle Birch-\/Glatttalstrasse", "address_street": "Birchstrasse 666", "id": "003BE_00332161", "poityp_en": "Letterbox", "address_kantoncode": "ZH", "groupename_de": null, "address_zip": "8052", "address_gemeindeid": "261", "address_countrycode": "CH", "service_de": null, "address_city": "Zürich", "poityp_de": "Briefeinwurf" }, "geometry": { "type": "Point", "coordinates": [ 8.54614218, 47.42720568 ] } },
{ "type": "Feature", "properties": { "description_de": "Briefeinwurf Zürich, BE Restaurant Binzgarten", "address_street": "Affolternstrasse 10", "id": "003BE_00332164", "poityp_en": "Letterbox", "address_kantoncode": "ZH", "groupename_de": null, "address_zip": "8050", "address_gemeindeid": "261", "address_countrycode": "CH", "service_de": null, "address_city": "Zürich", "poityp_de": "Briefeinwurf" }, "geometry": { "type": "Point", "coordinates": [ 8.54452934, 47.41246922 ] } },
{ "type": "Feature", "properties": { "description_de": "Briefeinwurf Zürich, Bushaltestelle Hungerbergstrasse", "address_street": "Wehntalerstrasse 597", "id": "003BE_00332173", "poityp_en": "Letterbox", "address_kantoncode": "ZH", "groupename_de": null, "address_zip": "8046", "address_gemeindeid": "261", "address_countrycode": "CH", "service_de": null, "address_city": "Zürich", "poityp_de": "Briefeinwurf" }, "geometry": { "type": "Point", "coordinates": [ 8.5016753, 47.42104762 ] } },
{ "type": "Feature", "properties": { "description_de": "Briefeinwurf Zürich, Neumarkt", "address_street": "Hofwiesenstrasse 354", "id": "003BE_00332175", "poityp_en": "Letterbox", "address_kantoncode": "ZH", "groupename_de": null, "address_zip": "8050", "address_gemeindeid": "261", "address_countrycode": "CH", "service_de": null, "address_city": "Zürich", "poityp_de": "Briefeinwurf" }, "geometry": { "type": "Point", "coordinates": [ 8.54338606, 47.41062986 ] } },
{ "type": "Feature", "properties": { "description_de": "Briefeinwurf Zürich, Kirchenackerweg", "address_street": "Kirchenackerweg 30", "id": "003BE_00332177", "poityp_en": "Letterbox", "address_kantoncode": "ZH", "groupename_de": null, "address_zip": "8050", "address_gemeindeid": "261", "address_countrycode": "CH", "service_de": null, "address_city": "Zürich", "poityp_de": "Briefeinwurf" }, "geometry": { "type": "Point", "coordinates": [ 8.55368444, 47.40904141 ] } },
{ "type": "Feature", "properties": { "description_de": "Briefeinwurf Zürich, Max-Bill-Platz", "address_street": "Max-Bill-Platz 19", "id": "003BE_00332180", "poityp_en": "Letterbox", "address_kantoncode": "ZH", "groupename_de": null, "address_zip": "8050", "address_gemeindeid": "261", "address_countrycode": "CH", "service_de": null, "address_city": "Zürich", "poityp_de": "Briefeinwurf" }, "geometry": { "type": "Point", "coordinates": [ 8.54092279, 47.41409129 ] } },
{ "type": "Feature", "properties": { "description_de": "Briefeinwurf Zürich, Bushaltestelle Stierenried", "address_street": "Neunbrunnenstrasse 104", "id": "003BE_00332181", "poityp_en": "Letterbox", "address_kantoncode": "ZH", "groupename_de": null, "address_zip": "8050", "address_gemeindeid": "261", "address_countrycode": "CH", "service_de": null, "address_city": "Zürich", "poityp_de": "Briefeinwurf" }, "geometry": { "type": "Point", "coordinates": [ 8.53523348, 47.41664781 ] } },
{ "type": "Feature", "properties": { "description_de": "Briefeinwurf Zürich, Neunbrunnenstrasse", "address_street": "Neunbrunnenstrasse 16", "id": "003BE_00332182", "poityp_en": "Letterbox", "address_kantoncode": "ZH", "groupename_de": null, "address_zip": "8050", "address_gemeindeid": "261", "address_countrycode": "CH", "service_de": null, "address_city": "Zürich", "poityp_de": "Briefeinwurf" }, "geometry": { "type": "Point", "coordinates": [ 8.54366183, 47.41773064 ] } },
{ "type": "Feature", "properties": { "description_de": "Briefeinwurf Zürich, Regensbergstrasse", "address_street": "Regensbergstrasse 185", "id": "003BE_00332184", "poityp_en": "Letterbox", "address_kantoncode": "ZH", "groupename_de": null, "address_zip": "8050", "address_gemeindeid": "261", "address_countrycode": "CH", "service_de": null, "address_city": "Zürich", "poityp_de": "Briefeinwurf" }, "geometry": { "type": "Point", "coordinates": [ 8.5373684, 47.40951335 ] } },
{ "type": "Feature", "properties": { "description_de": "Briefeinwurf Zürich, Dreispitz", "address_street": "Dreispitz 188", "id": "003BE_00332190", "poityp_en": "Letterbox", "address_kantoncode": "ZH", "groupename_de": null, "address_zip": "8050", "address_gemeindeid": "261", "address_countrycode": "CH", "service_de": null, "address_city": "Zürich", "poityp_de": "Briefeinwurf" }, "geometry": { "type": "Point", "coordinates": [ 8.56744447, 47.40989374 ] } },
{ "type": "Feature", "properties": { "description_de": "Briefeinwurf Zürich, Hofwiesenstrasse", "address_street": "Hofwiesenstrasse 379", "id": "003BE_00332193", "poityp_en": "Letterbox", "address_kantoncode": "ZH", "groupename_de": null, "address_zip": "8050", "address_gemeindeid": "261", "address_countrycode": "CH", "service_de": null, "address_city": "Zürich", "poityp_de": "Briefeinwurf" }, "geometry": { "type": "Point", "coordinates": [ 8.54534449, 47.41171303 ] } },
{ "type": "Feature", "properties": { "description_de": "Briefeinwurf Zürich, Bushaltestelle Aubrücke", "address_street": "Herzogenmühlestrasse 166", "id": "003BE_00332199", "poityp_en": "Letterbox", "address_kantoncode": "ZH", "groupename_de": null, "address_zip": "8051", "address_gemeindeid": "261", "address_countrycode": "CH", "service_de": null, "address_city": "Zürich", "poityp_de": "Briefeinwurf" }, "geometry": { "type": "Point", "coordinates": [ 8.57215898, 47.41020203 ] } },
{ "type": "Feature", "properties": { "description_de": "Briefeinwurf Zürich, Kolbenacker", "address_street": "Kolbenacker 30", "id": "003BE_00332204", "poityp_en": "Letterbox", "address_kantoncode": "ZH", "groupename_de": null, "address_zip": "8052", "address_gemeindeid": "261", "address_countrycode": "CH", "service_de": null, "address_city": "Zürich", "poityp_de": "Briefeinwurf" }, "geometry": { "type": "Point", "coordinates": [ 8.54912908, 47.42672459 ] } },
{ "type": "Feature", "properties": { "description_de": "Briefeinwurf Zürich, Tram-\/Bushaltestelle Seebach", "address_street": "Schaffhauserstrasse 499", "id": "003BE_00332207", "poityp_en": "Letterbox", "address_kantoncode": "ZH", "groupename_de": null, "address_zip": "8052", "address_gemeindeid": "261", "address_countrycode": "CH", "service_de": null, "address_city": "Zürich", "poityp_de": "Briefeinwurf" }, "geometry": { "type": "Point", "coordinates": [ 8.54991658, 47.42164921 ] } },
{ "type": "Feature", "properties": { "description_de": "Briefeinwurf Zürich, Tram-\/Bushaltestelle Radiostudio", "address_street": "Hofwiesenstrasse 190", "id": "003BE_00332209", "poityp_en": "Letterbox", "address_kantoncode": "ZH", "groupename_de": null, "address_zip": "8057", "address_gemeindeid": "261", "address_countrycode": "CH", "service_de": null, "address_city": "Zürich", "poityp_de": "Briefeinwurf" }, "geometry": { "type": "Point", "coordinates": [ 8.5354817, 47.40218228 ] } },
{ "type": "Feature", "properties": { "description_de": "Briefeinwurf Zürich, Oerlikonerstrasse", "address_street": "Oerlikonerstrasse 91", "id": "003BE_00332211", "poityp_en": "Letterbox", "address_kantoncode": "ZH", "groupename_de": null, "address_zip": "8057", "address_gemeindeid": "261", "address_countrycode": "CH", "service_de": null, "address_city": "Zürich", "poityp_de": "Briefeinwurf" }, "geometry": { "type": "Point", "coordinates": [ 8.54650662, 47.40527671 ] } },
{ "type": "Feature", "properties": { "description_de": "Briefeinwurf Zürich, Köschenrütistrasse", "address_street": "Köschenrütistrasse 140", "id": "003BE_00332228", "poityp_en": "Letterbox", "address_kantoncode": "ZH", "groupename_de": null, "address_zip": "8052", "address_gemeindeid": "261", "address_countrycode": "CH", "service_de": null, "address_city": "Zürich", "poityp_de": "Briefeinwurf" }, "geometry": { "type": "Point", "coordinates": [ 8.53696115, 47.42819993 ] } },
{ "type": "Feature", "properties": { "description_de": "Briefeinwurf Zürich, Bahnhof Stettbach", "address_street": "Dübendorfstrasse 447", "id": "003BE_00332229", "poityp_en": "Letterbox", "address_kantoncode": "ZH", "groupename_de": null, "address_zip": "8051", "address_gemeindeid": "261", "address_countrycode": "CH", "service_de": null, "address_city": "Zürich", "poityp_de": "Briefeinwurf" }, "geometry": { "type": "Point", "coordinates": [ 8.59630257, 47.39730476 ] } },
{ "type": "Feature", "properties": { "description_de": "Briefeinwurf Zürich, Sonneggstrasse", "address_street": "Sonneggstrasse 20", "id": "003BE_00332874", "poityp_en": "Letterbox", "address_kantoncode": "ZH", "groupename_de": null, "address_zip": "8006", "address_gemeindeid": "261", "address_countrycode": "CH", "service_de": null, "address_city": "Zürich", "poityp_de": "Briefeinwurf" }, "geometry": { "type": "Point", "coordinates": [ 8.5467886, 47.37977729 ] } },
{ "type": "Feature", "properties": { "description_de": "Briefeinwurf Zürich, Claridenstrasse", "address_street": "Claridenstrasse 19", "id": "003BE_00332287", "poityp_en": "Letterbox", "address_kantoncode": "ZH", "groupename_de": null, "address_zip": "8002", "address_gemeindeid": "261", "address_countrycode": "CH", "service_de": null, "address_city": "Zürich", "poityp_de": "Briefeinwurf" }, "geometry": { "type": "Point", "coordinates": [ 8.53785512, 47.36655875 ] } },
{ "type": "Feature", "properties": { "description_de": "Briefeinwurf Zürich, Rebenstrasse", "address_street": "Rebenstrasse 54", "id": "003BE_00332306", "poityp_en": "Letterbox", "address_kantoncode": "ZH", "groupename_de": null, "address_zip": "8041", "address_gemeindeid": "261", "address_countrycode": "CH", "service_de": null, "address_city": "Zürich", "poityp_de": "Briefeinwurf" }, "geometry": { "type": "Point", "coordinates": [ 8.51626249, 47.33445682 ] } },
{ "type": "Feature", "properties": { "description_de": "Briefeinwurf Zürich, Billeterstrasse", "address_street": "Billeterstrasse 1", "id": "003BE_00329530", "poityp_en": "Letterbox", "address_kantoncode": "ZH", "groupename_de": null, "address_zip": "8044", "address_gemeindeid": "261", "address_countrycode": "CH", "service_de": null, "address_city": "Zürich", "poityp_de": "Briefeinwurf" }, "geometry": { "type": "Point", "coordinates": [ 8.56712346, 47.37852893 ] } },
{ "type": "Feature", "properties": { "description_de": "Briefeinwurf Zürich, BE Tramhalt. Voltastrasse", "address_street": "Gloriastrasse 54", "id": "003BE_00329533", "poityp_en": "Letterbox", "address_kantoncode": "ZH", "groupename_de": null, "address_zip": "8044", "address_gemeindeid": "261", "address_countrycode": "CH", "service_de": null, "address_city": "Zürich", "poityp_de": "Briefeinwurf" }, "geometry": { "type": "Point", "coordinates": [ 8.55445199, 47.37697439 ] } },
{ "type": "Feature", "properties": { "description_de": "Briefeinwurf Zürich, Zürichbergstrasse", "address_street": "Zürichbergstrasse 20", "id": "003BE_00329535", "poityp_en": "Letterbox", "address_kantoncode": "ZH", "groupename_de": null, "address_zip": "8032", "address_gemeindeid": "261", "address_countrycode": "CH", "service_de": null, "address_city": "Zürich", "poityp_de": "Briefeinwurf" }, "geometry": { "type": "Point", "coordinates": [ 8.55301344, 47.37340549 ] } },
{ "type": "Feature", "properties": { "description_de": "Briefeinwurf Zürich, Hofstrasse", "address_street": "Hofstrasse 40", "id": "003BE_00329537", "poityp_en": "Letterbox", "address_kantoncode": "ZH", "groupename_de": null, "address_zip": "8032", "address_gemeindeid": "261", "address_countrycode": "CH", "service_de": null, "address_city": "Zürich", "poityp_de": "Briefeinwurf" }, "geometry": { "type": "Point", "coordinates": [ 8.55865105, 47.37148447 ] } },
{ "type": "Feature", "properties": { "description_de": "Briefeinwurf Zürich, Bushaltestelle Kapfstrasse", "address_street": "Witikonerstrasse 80", "id": "003BE_00329544", "poityp_en": "Letterbox", "address_kantoncode": "ZH", "groupename_de": null, "address_zip": "8032", "address_gemeindeid": "261", "address_countrycode": "CH", "service_de": null, "address_city": "Zürich", "poityp_de": "Briefeinwurf" }, "geometry": { "type": "Point", "coordinates": [ 8.57115238, 47.36103065 ] } },
{ "type": "Feature", "properties": { "description_de": "Briefeinwurf Zürich, Tram-\/Bushaltestelle Neumarkt", "address_street": "Hirschengraben 40", "id": "003BE_00329558", "poityp_en": "Letterbox", "address_kantoncode": "ZH", "groupename_de": null, "address_zip": "8001", "address_gemeindeid": "261", "address_countrycode": "CH", "service_de": null, "address_city": "Zürich", "poityp_de": "Briefeinwurf" }, "geometry": { "type": "Point", "coordinates": [ 8.54754912, 47.37272676 ] } },
{ "type": "Feature", "properties": { "description_de": "Briefeinwurf Zürich, Gemeindestrasse", "address_street": "Gemeindestrasse 4", "id": "003BE_00329580", "poityp_en": "Letterbox", "address_kantoncode": "ZH", "groupename_de": null, "address_zip": "8032", "address_gemeindeid": "261", "address_countrycode": "CH", "service_de": null, "address_city": "Zürich", "poityp_de": "Briefeinwurf" }, "geometry": { "type": "Point", "coordinates": [ 8.55158038, 47.36844136 ] } },
{ "type": "Feature", "properties": { "description_de": "Briefeinwurf Zürich, Heliosstrasse", "address_street": "Heliosstrasse 32", "id": "003BE_00329583", "poityp_en": "Letterbox", "address_kantoncode": "ZH", "groupename_de": null, "address_zip": "8032", "address_gemeindeid": "261", "address_countrycode": "CH", "service_de": null, "address_city": "Zürich", "poityp_de": "Briefeinwurf" }, "geometry": { "type": "Point", "coordinates": [ 8.56077319, 47.36278168 ] } },
{ "type": "Feature", "properties": { "description_de": "Briefeinwurf Zürich, Eierbrechtstrasse", "address_street": "Eierbrechtstrasse 39", "id": "003BE_00329591", "poityp_en": "Letterbox", "address_kantoncode": "ZH", "groupename_de": null, "address_zip": "8053", "address_gemeindeid": "261", "address_countrycode": "CH", "service_de": null, "address_city": "Zürich", "poityp_de": "Briefeinwurf" }, "geometry": { "type": "Point", "coordinates": [ 8.57750321, 47.35844143 ] } },
{ "type": "Feature", "properties": { "description_de": "Briefeinwurf Zürich, Bushaltestelle Loorenstrasse", "address_street": "Witikonerstrasse 405", "id": "003BE_00329595", "poityp_en": "Letterbox", "address_kantoncode": "ZH", "groupename_de": null, "address_zip": "8053", "address_gemeindeid": "261", "address_countrycode": "CH", "service_de": null, "address_city": "Zürich", "poityp_de": "Briefeinwurf" }, "geometry": { "type": "Point", "coordinates": [ 8.59396239, 47.35987103 ] } },
{ "type": "Feature", "properties": { "description_de": "Briefeinwurf Zürich, Tramhaltestelle Burgwies", "address_street": "Forchstrasse 261", "id": "003BE_00329601", "poityp_en": "Letterbox", "address_kantoncode": "ZH", "groupename_de": null, "address_zip": "8032", "address_gemeindeid": "261", "address_countrycode": "CH", "service_de": null, "address_city": "Zürich", "poityp_de": "Briefeinwurf" }, "geometry": { "type": "Point", "coordinates": [ 8.57162349, 47.35827977 ] } },
{ "type": "Feature", "properties": { "description_de": "Briefeinwurf Zürich, Bahnhof Balgrist", "address_street": "Forchstrasse 331", "id": "003BE_00329602", "poityp_en": "Letterbox", "address_kantoncode": "ZH", "groupename_de": null, "address_zip": "8008", "address_gemeindeid": "261", "address_countrycode": "CH", "service_de": null, "address_city": "Zürich", "poityp_de": "Briefeinwurf" }, "geometry": { "type": "Point", "coordinates": [ 8.57533577, 47.35457142 ] } },
{ "type": "Feature", "properties": { "description_de": "Briefeinwurf Zürich, Im Walder", "address_street": "Im Walder 14", "id": "003BE_00329604", "poityp_en": "Letterbox", "address_kantoncode": "ZH", "groupename_de": null, "address_zip": "8008", "address_gemeindeid": "261", "address_countrycode": "CH", "service_de": null, "address_city": "Zürich", "poityp_de": "Briefeinwurf" }, "geometry": { "type": "Point", "coordinates": [ 8.57413264, 47.34817141 ] } },
{ "type": "Feature", "properties": { "description_de": "Briefeinwurf Zürich, Bushaltestelle Wonnenbergstrasse", "address_street": "Lenggstrasse 1", "id": "003BE_00329605", "poityp_en": "Letterbox", "address_kantoncode": "ZH", "groupename_de": null, "address_zip": "8008", "address_gemeindeid": "261", "address_countrycode": "CH", "service_de": null, "address_city": "Zürich", "poityp_de": "Briefeinwurf" }, "geometry": { "type": "Point", "coordinates": [ 8.56681531, 47.35176119 ] } },
{ "type": "Feature", "properties": { "description_de": "Briefeinwurf Zürich, Mühlebachstrasse", "address_street": "Mühlebachstrasse 43", "id": "003BE_00329609", "poityp_en": "Letterbox", "address_kantoncode": "ZH", "groupename_de": null, "address_zip": "8008", "address_gemeindeid": "261", "address_countrycode": "CH", "service_de": null, "address_city": "Zürich", "poityp_de": "Briefeinwurf" }, "geometry": { "type": "Point", "coordinates": [ 8.55177315, 47.36384834 ] } },
{ "type": "Feature", "properties": { "description_de": "Briefeinwurf Zürich, Mühlebachstrasse", "address_street": "Mühlebachstrasse 174", "id": "003BE_00329611", "poityp_en": "Letterbox", "address_kantoncode": "ZH", "groupename_de": null, "address_zip": "8008", "address_gemeindeid": "261", "address_countrycode": "CH", "service_de": null, "address_city": "Zürich", "poityp_de": "Briefeinwurf" }, "geometry": { "type": "Point", "coordinates": [ 8.55873117, 47.35638698 ] } },
{ "type": "Feature", "properties": { "description_de": "Briefeinwurf Zürich, Bushaltestelle Altenhofstrasse", "address_street": "Zollikerstrasse 154", "id": "003BE_00329612", "poityp_en": "Letterbox", "address_kantoncode": "ZH", "groupename_de": null, "address_zip": "8008", "address_gemeindeid": "261", "address_countrycode": "CH", "service_de": null, "address_city": "Zürich", "poityp_de": "Briefeinwurf" }, "geometry": { "type": "Point", "coordinates": [ 8.5613824, 47.3551199 ] } },
{ "type": "Feature", "properties": { "description_de": "Briefeinwurf Zürich, Seefeldstrasse", "address_street": "Seefeldstrasse 81", "id": "003BE_00329616", "poityp_en": "Letterbox", "address_kantoncode": "ZH", "groupename_de": null, "address_zip": "8008", "address_gemeindeid": "261", "address_countrycode": "CH", "service_de": null, "address_city": "Zürich", "poityp_de": "Briefeinwurf" }, "geometry": { "type": "Point", "coordinates": [ 8.55241813, 47.36037266 ] } },
{ "type": "Feature", "properties": { "description_de": "Briefeinwurf Zürich, Dufourstrasse", "address_street": "Dufourstrasse 100", "id": "003BE_00329622", "poityp_en": "Letterbox", "address_kantoncode": "ZH", "groupename_de": null, "address_zip": "8008", "address_gemeindeid": "261", "address_countrycode": "CH", "service_de": null, "address_city": "Zürich", "poityp_de": "Briefeinwurf" }, "geometry": { "type": "Point", "coordinates": [ 8.5513434, 47.35905083 ] } },
{ "type": "Feature", "properties": { "description_de": "Briefeinwurf Zürich, Dufourstrasse", "address_street": "Dufourstrasse 157", "id": "003BE_00329623", "poityp_en": "Letterbox", "address_kantoncode": "ZH", "groupename_de": null, "address_zip": "8008", "address_gemeindeid": "261", "address_countrycode": "CH", "service_de": null, "address_city": "Zürich", "poityp_de": "Briefeinwurf" }, "geometry": { "type": "Point", "coordinates": [ 8.55481159, 47.35518449 ] } },
{ "type": "Feature", "properties": { "description_de": "Briefeinwurf Zürich, Seefeldstrasse", "address_street": "Seefeldstrasse 220", "id": "003BE_00329624", "poityp_en": "Letterbox", "address_kantoncode": "ZH", "groupename_de": null, "address_zip": "8008", "address_gemeindeid": "261", "address_countrycode": "CH", "service_de": null, "address_city": "Zürich", "poityp_de": "Briefeinwurf" }, "geometry": { "type": "Point", "coordinates": [ 8.55926764, 47.35262356 ] } },
{ "type": "Feature", "properties": { "description_de": "Briefeinwurf Zürich, Bahnhof Tiefenbrunnen", "address_street": "Bellerivestrasse 251", "id": "003BE_00329628", "poityp_en": "Letterbox", "address_kantoncode": "ZH", "groupename_de": null, "address_zip": "8008", "address_gemeindeid": "261", "address_countrycode": "CH", "service_de": null, "address_city": "Zürich", "poityp_de": "Briefeinwurf" }, "geometry": { "type": "Point", "coordinates": [ 8.5609805, 47.35029964 ] } },
{ "type": "Feature", "properties": { "description_de": "Briefeinwurf Zürich, BE Tramhaltestelle Bellevue 1", "address_street": "Bellevueplatz 1", "id": "003BE_00329630", "poityp_en": "Letterbox", "address_kantoncode": "ZH", "groupename_de": null, "address_zip": "8001", "address_gemeindeid": "261", "address_countrycode": "CH", "service_de": null, "address_city": "Zürich", "poityp_de": "Briefeinwurf" }, "geometry": { "type": "Point", "coordinates": [ 8.54524704, 47.36701259 ] } },
{ "type": "Feature", "properties": { "description_de": "Briefeinwurf Zürich, Filiale Zürich 36 Wiedikon", "address_street": "Seebahnstrasse 89", "id": "003BE_00329636", "poityp_en": "Letterbox", "address_kantoncode": "ZH", "groupename_de": null, "address_zip": "8003", "address_gemeindeid": "261", "address_countrycode": "CH", "service_de": null, "address_city": "Zürich", "poityp_de": "Briefeinwurf" }, "geometry": { "type": "Point", "coordinates": [ 8.52282977, 47.37127029 ] } },
{ "type": "Feature", "properties": { "description_de": "Briefeinwurf Zürich, Filiale Zürich 48 Altstetten", "address_street": "Altstetterstrasse 159", "id": "003BE_00329641", "poityp_en": "Letterbox", "address_kantoncode": "ZH", "groupename_de": null, "address_zip": "8048", "address_gemeindeid": "261", "address_countrycode": "CH", "service_de": null, "address_city": "Zürich", "poityp_de": "Briefeinwurf" }, "geometry": { "type": "Point", "coordinates": [ 8.48634808, 47.38674831 ] } },
{ "type": "Feature", "properties": { "description_de": "Briefeinwurf Zürich, Filiale Zürich 31 Industriequartier", "address_street": "Limmatstrasse 118", "id": "003BE_00329642", "poityp_en": "Letterbox", "address_kantoncode": "ZH", "groupename_de": null, "address_zip": "8005", "address_gemeindeid": "261", "address_countrycode": "CH", "service_de": null, "address_city": "Zürich", "poityp_de": "Briefeinwurf" }, "geometry": { "type": "Point", "coordinates": [ 8.53243682, 47.38421821 ] } },
{ "type": "Feature", "properties": { "description_de": "Briefeinwurf Zürich, Filiale Zürich 42 Schaffhauserplatz", "address_street": "Hofwiesenstrasse 3", "id": "003BE_00329644", "poityp_en": "Letterbox", "address_kantoncode": "ZH", "groupename_de": null, "address_zip": "8057", "address_gemeindeid": "261", "address_countrycode": "CH", "service_de": null, "address_city": "Zürich", "poityp_de": "Briefeinwurf" }, "geometry": { "type": "Point", "coordinates": [ 8.53823922, 47.39205907 ] } },
{ "type": "Feature", "properties": { "description_de": "Briefeinwurf Zürich, Filiale Zürich 32 Neumünster", "address_street": "Forchstrasse 8", "id": "003BE_00329647", "poityp_en": "Letterbox", "address_kantoncode": "ZH", "groupename_de": null, "address_zip": "8008", "address_gemeindeid": "261", "address_countrycode": "CH", "service_de": null, "address_city": "Zürich", "poityp_de": "Briefeinwurf" }, "geometry": { "type": "Point", "coordinates": [ 8.55563285, 47.36418798 ] } },
{ "type": "Feature", "properties": { "description_de": "Briefeinwurf Zürich, Filiale Zürich 34 Riesbach", "address_street": "Seefeldstrasse 128", "id": "003BE_00329648", "poityp_en": "Letterbox", "address_kantoncode": "ZH", "groupename_de": null, "address_zip": "8008", "address_gemeindeid": "261", "address_countrycode": "CH", "service_de": null, "address_city": "Zürich", "poityp_de": "Briefeinwurf" }, "geometry": { "type": "Point", "coordinates": [ 8.55411968, 47.35773503 ] } },
{ "type": "Feature", "properties": { "description_de": "Briefeinwurf Zürich, Bühlstrasse", "address_street": "Bühlstrasse 21", "id": "003BE_00329213", "poityp_en": "Letterbox", "address_kantoncode": "ZH", "groupename_de": null, "address_zip": "8055", "address_gemeindeid": "261", "address_countrycode": "CH", "service_de": null, "address_city": "Zürich", "poityp_de": "Briefeinwurf" }, "geometry": { "type": "Point", "coordinates": [ 8.51499631, 47.36706455 ] } },
{ "type": "Feature", "properties": { "description_de": "Briefeinwurf Zürich, Tram-\/Bushaltestelle Uetlihof", "address_street": "Uetlibergstrasse 231", "id": "003BE_00329214", "poityp_en": "Letterbox", "address_kantoncode": "ZH", "groupename_de": null, "address_zip": "8045", "address_gemeindeid": "261", "address_countrycode": "CH", "service_de": null, "address_city": "Zürich", "poityp_de": "Briefeinwurf" }, "geometry": { "type": "Point", "coordinates": [ 8.51428018, 47.35702811 ] } },
{ "type": "Feature", "properties": { "description_de": "Briefeinwurf Zürich, BE Bushaltestelle Friesenberg", "address_street": "Gehrenholzstrasse 2", "id": "003BE_00329221", "poityp_en": "Letterbox", "address_kantoncode": "ZH", "groupename_de": null, "address_zip": "8055", "address_gemeindeid": "261", "address_countrycode": "CH", "service_de": null, "address_city": "Zürich", "poityp_de": "Briefeinwurf" }, "geometry": { "type": "Point", "coordinates": [ 8.5073434, 47.36387935 ] } },
{ "type": "Feature", "properties": { "description_de": "Briefeinwurf Zürich, Tramendhaltestelle Zürich Triemli", "address_street": "Birmensdorferstrasse 509", "id": "003BE_00329225", "poityp_en": "Letterbox", "address_kantoncode": "ZH", "groupename_de": null, "address_zip": "8055", "address_gemeindeid": "261", "address_countrycode": "CH", "service_de": null, "address_city": "Zürich", "poityp_de": "Briefeinwurf" }, "geometry": { "type": "Point", "coordinates": [ 8.49550249, 47.36789129 ] } },
{ "type": "Feature", "properties": { "description_de": "Briefeinwurf Zürich, Birmensdorferstrasse", "address_street": "Birmensdorferstrasse 320", "id": "003BE_00329228", "poityp_en": "Letterbox", "address_kantoncode": "ZH", "groupename_de": null, "address_zip": "8055", "address_gemeindeid": "261", "address_countrycode": "CH", "service_de": null, "address_city": "Zürich", "poityp_de": "Briefeinwurf" }, "geometry": { "type": "Point", "coordinates": [ 8.50861524, 47.36986285 ] } },
{ "type": "Feature", "properties": { "description_de": "Briefeinwurf Zürich, Goldbrunnenplatz", "address_street": "Goldbrunnenplatz 2", "id": "003BE_00329229", "poityp_en": "Letterbox", "address_kantoncode": "ZH", "groupename_de": null, "address_zip": "8055", "address_gemeindeid": "261", "address_countrycode": "CH", "service_de": null, "address_city": "Zürich", "poityp_de": "Briefeinwurf" }, "geometry": { "type": "Point", "coordinates": [ 8.51361652, 47.37007638 ] } },
{ "type": "Feature", "properties": { "description_de": "Briefeinwurf Zürich, Steinstrasse", "address_street": "Steinstrasse 72", "id": "003BE_00329234", "poityp_en": "Letterbox", "address_kantoncode": "ZH", "groupename_de": null, "address_zip": "8003", "address_gemeindeid": "261", "address_countrycode": "CH", "service_de": null, "address_city": "Zürich", "poityp_de": "Briefeinwurf" }, "geometry": { "type": "Point", "coordinates": [ 8.52132235, 47.36589273 ] } },
{ "type": "Feature", "properties": { "description_de": "Briefeinwurf Zürich, Bahnhof Zürich Binz", "address_street": "Uetlibergstrasse 65", "id": "003BE_00329238", "poityp_en": "Letterbox", "address_kantoncode": "ZH", "groupename_de": null, "address_zip": "8045", "address_gemeindeid": "261", "address_countrycode": "CH", "service_de": null, "address_city": "Zürich", "poityp_de": "Briefeinwurf" }, "geometry": { "type": "Point", "coordinates": [ 8.51875073, 47.36259938 ] } },
{ "type": "Feature", "properties": { "description_de": "Briefeinwurf Zürich, Birmensdorferstrasse", "address_street": "Birmensdorferstrasse 51", "id": "003BE_00329243", "poityp_en": "Letterbox", "address_kantoncode": "ZH", "groupename_de": null, "address_zip": "8004", "address_gemeindeid": "261", "address_countrycode": "CH", "service_de": null, "address_city": "Zürich", "poityp_de": "Briefeinwurf" }, "geometry": { "type": "Point", "coordinates": [ 8.5258506, 47.3716233 ] } },
{ "type": "Feature", "properties": { "description_de": "Briefeinwurf Zürich, Magnusstrasse", "address_street": "Magnusstrasse 1", "id": "003BE_00329257", "poityp_en": "Letterbox", "address_kantoncode": "ZH", "groupename_de": null, "address_zip": "8004", "address_gemeindeid": "261", "address_countrycode": "CH", "service_de": null, "address_city": "Zürich", "poityp_de": "Briefeinwurf" }, "geometry": { "type": "Point", "coordinates": [ 8.52425988, 47.3793399 ] } },
{ "type": "Feature", "properties": { "description_de": "Briefeinwurf Zürich, Triemlistrasse", "address_street": "Triemlistrasse 120", "id": "003BE_00329283", "poityp_en": "Letterbox", "address_kantoncode": "ZH", "groupename_de": null, "address_zip": "8047", "address_gemeindeid": "261", "address_countrycode": "CH", "service_de": null, "address_city": "Zürich", "poityp_de": "Briefeinwurf" }, "geometry": { "type": "Point", "coordinates": [ 8.49139782, 47.36928613 ] } },
{ "type": "Feature", "properties": { "description_de": "Briefeinwurf Zürich, Espenhofweg", "address_street": "Espenhofweg 40", "id": "003BE_00329287", "poityp_en": "Letterbox", "address_kantoncode": "ZH", "groupename_de": null, "address_zip": "8047", "address_gemeindeid": "261", "address_countrycode": "CH", "service_de": null, "address_city": "Zürich", "poityp_de": "Briefeinwurf" }, "geometry": { "type": "Point", "coordinates": [ 8.49796109, 47.37275402 ] } },
{ "type": "Feature", "properties": { "description_de": "Briefeinwurf Zürich, Tram-\/Bushaltestelle Hubertus", "address_street": "Gutstrasse 235", "id": "003BE_00329289", "poityp_en": "Letterbox", "address_kantoncode": "ZH", "groupename_de": null, "address_zip": "8047", "address_gemeindeid": "261", "address_countrycode": "CH", "service_de": null, "address_city": "Zürich", "poityp_de": "Briefeinwurf" }, "geometry": { "type": "Point", "coordinates": [ 8.49914476, 47.377077 ] } },
{ "type": "Feature", "properties": { "description_de": "Briefeinwurf Zürich, Burstwiesenstrasse", "address_street": "Burstwiesenstrasse 20", "id": "003BE_00329290", "poityp_en": "Letterbox", "address_kantoncode": "ZH", "groupename_de": null, "address_zip": "8055", "address_gemeindeid": "261", "address_countrycode": "CH", "service_de": null, "address_city": "Zürich", "poityp_de": "Briefeinwurf" }, "geometry": { "type": "Point", "coordinates": [ 8.50714487, 47.37042426 ] } },
{ "type": "Feature", "properties": { "description_de": "Briefeinwurf Zürich, Birmensdorferstrasse", "address_street": "Birmensdorferstrasse 1", "id": "003BE_00329294", "poityp_en": "Letterbox", "address_kantoncode": "ZH", "groupename_de": null, "address_zip": "8004", "address_gemeindeid": "261", "address_countrycode": "CH", "service_de": null, "address_city": "Zürich", "poityp_de": "Briefeinwurf" }, "geometry": { "type": "Point", "coordinates": [ 8.52794974, 47.37300587 ] } },
{ "type": "Feature", "properties": { "description_de": "Briefeinwurf Zürich, Hallwylplatz", "address_street": "Hallwylstrasse 40", "id": "003BE_00329295", "poityp_en": "Letterbox", "address_kantoncode": "ZH", "groupename_de": null, "address_zip": "8004", "address_gemeindeid": "261", "address_countrycode": "CH", "service_de": null, "address_city": "Zürich", "poityp_de": "Briefeinwurf" }, "geometry": { "type": "Point", "coordinates": [ 8.52839049, 47.37137719 ] } },
{ "type": "Feature", "properties": { "description_de": "Briefeinwurf Zürich, Bezirksgericht Zürich", "address_street": "Badenerstrasse 90", "id": "003BE_00329297", "poityp_en": "Letterbox", "address_kantoncode": "ZH", "groupename_de": null, "address_zip": "8004", "address_gemeindeid": "261", "address_countrycode": "CH", "service_de": null, "address_city": "Zürich", "poityp_de": "Briefeinwurf" }, "geometry": { "type": "Point", "coordinates": [ 8.52569675, 47.37427382 ] } },
{ "type": "Feature", "properties": { "description_de": "Briefeinwurf Zürich, Kanzleistrasse", "address_street": "Kanzleistrasse 91", "id": "003BE_00329303", "poityp_en": "Letterbox", "address_kantoncode": "ZH", "groupename_de": null, "address_zip": "8004", "address_gemeindeid": "261", "address_countrycode": "CH", "service_de": null, "address_city": "Zürich", "poityp_de": "Briefeinwurf" }, "geometry": { "type": "Point", "coordinates": [ 8.52316985, 47.37588251 ] } },
{ "type": "Feature", "properties": { "description_de": "Briefeinwurf Zürich, Heinrichstrasse", "address_street": "Heinrichstrasse 235", "id": "003BE_00329311", "poityp_en": "Letterbox", "address_kantoncode": "ZH", "groupename_de": null, "address_zip": "8005", "address_gemeindeid": "261", "address_countrycode": "CH", "service_de": null, "address_city": "Zürich", "poityp_de": "Briefeinwurf" }, "geometry": { "type": "Point", "coordinates": [ 8.52322257, 47.38843562 ] } },
{ "type": "Feature", "properties": { "description_de": "Briefeinwurf Zürich, Am Wasser", "address_street": "Am Wasser 138", "id": "003BE_00329320", "poityp_en": "Letterbox", "address_kantoncode": "ZH", "groupename_de": null, "address_zip": "8049", "address_gemeindeid": "261", "address_countrycode": "CH", "service_de": null, "address_city": "Zürich", "poityp_de": "Briefeinwurf" }, "geometry": { "type": "Point", "coordinates": [ 8.4983433, 47.39931748 ] } },
{ "type": "Feature", "properties": { "description_de": "Briefeinwurf Zürich, Bahnhofstrasse", "address_street": "Bahnhofstrasse 84", "id": "003BE_00329850", "poityp_en": "Letterbox", "address_kantoncode": "ZH", "groupename_de": null, "address_zip": "8001", "address_gemeindeid": "261", "address_countrycode": "CH", "service_de": null, "address_city": "Zürich", "poityp_de": "Briefeinwurf" }, "geometry": { "type": "Point", "coordinates": [ 8.53917785, 47.37535244 ] } },
{ "type": "Feature", "properties": { "description_de": "Briefeinwurf Zürich, Beatenplatz", "address_street": "Beatenplatz 2", "id": "003BE_00329855", "poityp_en": "Letterbox", "address_kantoncode": "ZH", "groupename_de": null, "address_zip": "8001", "address_gemeindeid": "261", "address_countrycode": "CH", "service_de": null, "address_city": "Zürich", "poityp_de": "Briefeinwurf" }, "geometry": { "type": "Point", "coordinates": [ 8.54075473, 47.3759176 ] } },
{ "type": "Feature", "properties": { "description_de": "Briefeinwurf Zürich, Tobeleggstrasse", "address_street": "Tobeleggstrasse 8", "id": "003BE_00329333", "poityp_en": "Letterbox", "address_kantoncode": "ZH", "groupename_de": null, "address_zip": "8049", "address_gemeindeid": "261", "address_countrycode": "CH", "service_de": null, "address_city": "Zürich", "poityp_de": "Briefeinwurf" }, "geometry": { "type": "Point", "coordinates": [ 8.50189733, 47.39923267 ] } },
{ "type": "Feature", "properties": { "description_de": "Briefeinwurf Zürich, Ecke Michelstrasse", "address_street": "Segantinistrasse 91", "id": "003BE_00329346", "poityp_en": "Letterbox", "address_kantoncode": "ZH", "groupename_de": null, "address_zip": "8049", "address_gemeindeid": "261", "address_countrycode": "CH", "service_de": null, "address_city": "Zürich", "poityp_de": "Briefeinwurf" }, "geometry": { "type": "Point", "coordinates": [ 8.49539512, 47.40637318 ] } },
{ "type": "Feature", "properties": { "description_de": "Briefeinwurf Zürich, Wieslergasse", "address_street": "Wieslergasse 36", "id": "003BE_00329360", "poityp_en": "Letterbox", "address_kantoncode": "ZH", "groupename_de": null, "address_zip": "8049", "address_gemeindeid": "261", "address_countrycode": "CH", "service_de": null, "address_city": "Zürich", "poityp_de": "Briefeinwurf" }, "geometry": { "type": "Point", "coordinates": [ 8.49647068, 47.40362076 ] } },
{ "type": "Feature", "properties": { "description_de": "Briefeinwurf Zürich, Tram-\/Bushaltestelle Schwert", "address_street": "Limmattalstrasse 111", "id": "003BE_00329361", "poityp_en": "Letterbox", "address_kantoncode": "ZH", "groupename_de": null, "address_zip": "8049", "address_gemeindeid": "261", "address_countrycode": "CH", "service_de": null, "address_city": "Zürich", "poityp_de": "Briefeinwurf" }, "geometry": { "type": "Point", "coordinates": [ 8.50509255, 47.39949017 ] } },
{ "type": "Feature", "properties": { "description_de": "Briefeinwurf Zürich, Kürbergstrasse", "address_street": "Kürbergstrasse 24", "id": "003BE_00329367", "poityp_en": "Letterbox", "address_kantoncode": "ZH", "groupename_de": null, "address_zip": "8049", "address_gemeindeid": "261", "address_countrycode": "CH", "service_de": null, "address_city": "Zürich", "poityp_de": "Briefeinwurf" }, "geometry": { "type": "Point", "coordinates": [ 8.50748864, 47.39926925 ] } },
{ "type": "Feature", "properties": { "description_de": "Briefeinwurf Zürich, Appenzellerstrasse", "address_street": "Appenzellerstrasse 31", "id": "003BE_00329368", "poityp_en": "Letterbox", "address_kantoncode": "ZH", "groupename_de": null, "address_zip": "8049", "address_gemeindeid": "261", "address_countrycode": "CH", "service_de": null, "address_city": "Zürich", "poityp_de": "Briefeinwurf" }, "geometry": { "type": "Point", "coordinates": [ 8.50865011, 47.4001751 ] } },
{ "type": "Feature", "properties": { "description_de": "Briefeinwurf Zürich, Bäckerei", "address_street": "Weihersteig 1", "id": "003BE_00329373", "poityp_en": "Letterbox", "address_kantoncode": "ZH", "groupename_de": null, "address_zip": "8037", "address_gemeindeid": "261", "address_countrycode": "CH", "service_de": null, "address_city": "Zürich", "poityp_de": "Briefeinwurf" }, "geometry": { "type": "Point", "coordinates": [ 8.52673698, 47.39624542 ] } },
{ "type": "Feature", "properties": { "description_de": "Briefeinwurf Zürich, Unileverhaus", "address_street": "Hardturmstrasse 101", "id": "003BE_00329382", "poityp_en": "Letterbox", "address_kantoncode": "ZH", "groupename_de": null, "address_zip": "8005", "address_gemeindeid": "261", "address_countrycode": "CH", "service_de": null, "address_city": "Zürich", "poityp_de": "Briefeinwurf" }, "geometry": { "type": "Point", "coordinates": [ 8.51667987, 47.39218932 ] } },
{ "type": "Feature", "properties": { "description_de": "Briefeinwurf Zürich, Puls 5", "address_street": "Giessereistrasse 18", "id": "003BE_00329391", "poityp_en": "Letterbox", "address_kantoncode": "ZH", "groupename_de": null, "address_zip": "8005", "address_gemeindeid": "261", "address_countrycode": "CH", "service_de": null, "address_city": "Zürich", "poityp_de": "Briefeinwurf" }, "geometry": { "type": "Point", "coordinates": [ 8.51748382, 47.39009046 ] } },
{ "type": "Feature", "properties": { "description_de": "Briefeinwurf Zürich, Langmauerstrasse", "address_street": "Langmauerstrasse 35", "id": "003BE_00329401", "poityp_en": "Letterbox", "address_kantoncode": "ZH", "groupename_de": null, "address_zip": "8006", "address_gemeindeid": "261", "address_countrycode": "CH", "service_de": null, "address_city": "Zürich", "poityp_de": "Briefeinwurf" }, "geometry": { "type": "Point", "coordinates": [ 8.5421688, 47.38992126 ] } },
{ "type": "Feature", "properties": { "description_de": "Briefeinwurf Zürich, Milchbuckstrasse", "address_street": "Milchbuckstrasse 34", "id": "003BE_00329403", "poityp_en": "Letterbox", "address_kantoncode": "ZH", "groupename_de": null, "address_zip": "8057", "address_gemeindeid": "261", "address_countrycode": "CH", "service_de": null, "address_city": "Zürich", "poityp_de": "Briefeinwurf" }, "geometry": { "type": "Point", "coordinates": [ 8.54159336, 47.39405461 ] } },
{ "type": "Feature", "properties": { "description_de": "Briefeinwurf Zürich, Pelikanstrasse", "address_street": "Pelikanstrasse 19", "id": "003BE_00329903", "poityp_en": "Letterbox", "address_kantoncode": "ZH", "groupename_de": null, "address_zip": "8001", "address_gemeindeid": "261", "address_countrycode": "CH", "service_de": null, "address_city": "Zürich", "poityp_de": "Briefeinwurf" }, "geometry": { "type": "Point", "coordinates": [ 8.53673403, 47.37165439 ] } },
{ "type": "Feature", "properties": { "description_de": "Briefeinwurf Zürich, Engimattstrasse", "address_street": "Engimattstrasse 14", "id": "003BE_00329907", "poityp_en": "Letterbox", "address_kantoncode": "ZH", "groupename_de": null, "address_zip": "8002", "address_gemeindeid": "261", "address_countrycode": "CH", "service_de": null, "address_city": "Zürich", "poityp_de": "Briefeinwurf" }, "geometry": { "type": "Point", "coordinates": [ 8.52486975, 47.3595475 ] } },
{ "type": "Feature", "properties": { "description_de": "Briefeinwurf Zürich, Passage Löwenstrasse", "address_street": "Passage Löwenstrasse", "id": "003BE_00329915", "poityp_en": "Letterbox", "address_kantoncode": "ZH", "groupename_de": null, "address_zip": "8001", "address_gemeindeid": "261", "address_countrycode": "CH", "service_de": null, "address_city": "Zürich", "poityp_de": "Briefeinwurf" }, "geometry": { "type": "Point", "coordinates": [ 8.54010023, 47.37820861 ] } },
{ "type": "Feature", "properties": { "description_de": "Briefeinwurf Zürich, Stauffacherstrasse", "address_street": "Stauffacherstrasse 147", "id": "003BE_00329923", "poityp_en": "Letterbox", "address_kantoncode": "ZH", "groupename_de": null, "address_zip": "8004", "address_gemeindeid": "261", "address_countrycode": "CH", "service_de": null, "address_city": "Zürich", "poityp_de": "Briefeinwurf" }, "geometry": { "type": "Point", "coordinates": [ 8.52264809, 47.3773797 ] } },
{ "type": "Feature", "properties": { "description_de": "Briefeinwurf Zürich, Tramhaltestelle Kalkbreite", "address_street": "Engelstrasse 1", "id": "003BE_00329928", "poityp_en": "Letterbox", "address_kantoncode": "ZH", "groupename_de": null, "address_zip": "8004", "address_gemeindeid": "261", "address_countrycode": "CH", "service_de": null, "address_city": "Zürich", "poityp_de": "Briefeinwurf" }, "geometry": { "type": "Point", "coordinates": [ 8.52147796, 47.37460038 ] } },
{ "type": "Feature", "properties": { "description_de": "Briefeinwurf Zürich, Weinbergstrasse", "address_street": "Weinbergstrasse 29", "id": "003BE_00329421", "poityp_en": "Letterbox", "address_kantoncode": "ZH", "groupename_de": null, "address_zip": "8006", "address_gemeindeid": "261", "address_countrycode": "CH", "service_de": null, "address_city": "Zürich", "poityp_de": "Briefeinwurf" }, "geometry": { "type": "Point", "coordinates": [ 8.54413891, 47.37889505 ] } },
{ "type": "Feature", "properties": { "description_de": "Briefeinwurf Zürich, Tram-\/Bushaltestelle Röslistrasse", "address_street": "Weinbergstrasse 135", "id": "003BE_00329425", "poityp_en": "Letterbox", "address_kantoncode": "ZH", "groupename_de": null, "address_zip": "8006", "address_gemeindeid": "261", "address_countrycode": "CH", "service_de": null, "address_city": "Zürich", "poityp_de": "Briefeinwurf" }, "geometry": { "type": "Point", "coordinates": [ 8.54063315, 47.38861632 ] } },
{ "type": "Feature", "properties": { "description_de": "Briefeinwurf Zürich, Nordstrasse", "address_street": "Nordstrasse 190", "id": "003BE_00329436", "poityp_en": "Letterbox", "address_kantoncode": "ZH", "groupename_de": null, "address_zip": "8037", "address_gemeindeid": "261", "address_countrycode": "CH", "service_de": null, "address_city": "Zürich", "poityp_de": "Briefeinwurf" }, "geometry": { "type": "Point", "coordinates": [ 8.53112961, 47.39255556 ] } },
{ "type": "Feature", "properties": { "description_de": "Briefeinwurf Zürich, Bushaltestelle Rotbuchstrasse", "address_street": "Kornhausstrasse 57", "id": "003BE_00329438", "poityp_en": "Letterbox", "address_kantoncode": "ZH", "groupename_de": null, "address_zip": "8037", "address_gemeindeid": "261", "address_countrycode": "CH", "service_de": null, "address_city": "Zürich", "poityp_de": "Briefeinwurf" }, "geometry": { "type": "Point", "coordinates": [ 8.53611013, 47.39120139 ] } },
{ "type": "Feature", "properties": { "description_de": "Briefeinwurf Zürich, Adolf-Lüchinger-Strasse", "address_street": "Adolf-Lüchinger-Strasse 63", "id": "003BE_00329975", "poityp_en": "Letterbox", "address_kantoncode": "ZH", "groupename_de": null, "address_zip": "8045", "address_gemeindeid": "261", "address_countrycode": "CH", "service_de": null, "address_city": "Zürich", "poityp_de": "Briefeinwurf" }, "geometry": { "type": "Point", "coordinates": [ 8.50873231, 47.35576995 ] } },
{ "type": "Feature", "properties": { "description_de": "Briefeinwurf Zürich, Technopark", "address_street": "Technoparkstrasse 1", "id": "003BE_00329983", "poityp_en": "Letterbox", "address_kantoncode": "ZH", "groupename_de": null, "address_zip": "8005", "address_gemeindeid": "261", "address_countrycode": "CH", "service_de": null, "address_city": "Zürich", "poityp_de": "Briefeinwurf" }, "geometry": { "type": "Point", "coordinates": [ 8.51598866, 47.38964476 ] } },
{ "type": "Feature", "properties": { "description_de": "Briefeinwurf Zürich, Frauenklinikstrasse", "address_street": "Frauenklinikstrasse 10", "id": "003BE_00329993", "poityp_en": "Letterbox", "address_kantoncode": "ZH", "groupename_de": null, "address_zip": "8006", "address_gemeindeid": "261", "address_countrycode": "CH", "service_de": null, "address_city": "Zürich", "poityp_de": "Briefeinwurf" }, "geometry": { "type": "Point", "coordinates": [ 8.55095469, 47.37849862 ] } },
{ "type": "Feature", "properties": { "description_de": "Briefeinwurf Zürich, Rütistrasse", "address_street": "Rütistrasse 52", "id": "003BE_00329998", "poityp_en": "Letterbox", "address_kantoncode": "ZH", "groupename_de": null, "address_zip": "8032", "address_gemeindeid": "261", "address_countrycode": "CH", "service_de": null, "address_city": "Zürich", "poityp_de": "Briefeinwurf" }, "geometry": { "type": "Point", "coordinates": [ 8.56383772, 47.37105177 ] } },
{ "type": "Feature", "properties": { "description_de": "Briefeinwurf Zürich, Streulistrasse", "address_street": "Streulistrasse 48", "id": "003BE_00330004", "poityp_en": "Letterbox", "address_kantoncode": "ZH", "groupename_de": null, "address_zip": "8032", "address_gemeindeid": "261", "address_countrycode": "CH", "service_de": null, "address_city": "Zürich", "poityp_de": "Briefeinwurf" }, "geometry": { "type": "Point", "coordinates": [ 8.56287291, 47.36460439 ] } },
{ "type": "Feature", "properties": { "description_de": "Briefeinwurf Zürich, Schulthess Klinik", "address_street": "Lengghalde 2", "id": "003BE_00330007", "poityp_en": "Letterbox", "address_kantoncode": "ZH", "groupename_de": null, "address_zip": "8008", "address_gemeindeid": "261", "address_countrycode": "CH", "service_de": null, "address_city": "Zürich", "poityp_de": "Briefeinwurf" }, "geometry": { "type": "Point", "coordinates": [ 8.57316488, 47.35220452 ] } },
{ "type": "Feature", "properties": { "description_de": "Briefeinwurf Zürich, Kieselgasse", "address_street": "Kieselgasse 2", "id": "003BE_00330010", "poityp_en": "Letterbox", "address_kantoncode": "ZH", "groupename_de": null, "address_zip": "8008", "address_gemeindeid": "261", "address_countrycode": "CH", "service_de": null, "address_city": "Zürich", "poityp_de": "Briefeinwurf" }, "geometry": { "type": "Point", "coordinates": [ 8.55650732, 47.35575637 ] } },
{ "type": "Feature", "properties": { "description_de": "Briefeinwurf Zürich, Imfeldstrasse", "address_street": "Imfeldstrasse 17", "id": "003BE_00329474", "poityp_en": "Letterbox", "address_kantoncode": "ZH", "groupename_de": null, "address_zip": "8037", "address_gemeindeid": "261", "address_countrycode": "CH", "service_de": null, "address_city": "Zürich", "poityp_de": "Briefeinwurf" }, "geometry": { "type": "Point", "coordinates": [ 8.53424737, 47.38847555 ] } },
{ "type": "Feature", "properties": { "description_de": "Briefeinwurf Zürich, Rütschistrasse", "address_street": "Rütschistrasse 24", "id": "003BE_00329475", "poityp_en": "Letterbox", "address_kantoncode": "ZH", "groupename_de": null, "address_zip": "8037", "address_gemeindeid": "261", "address_countrycode": "CH", "service_de": null, "address_city": "Zürich", "poityp_de": "Briefeinwurf" }, "geometry": { "type": "Point", "coordinates": [ 8.53158568, 47.39386724 ] } },
{ "type": "Feature", "properties": { "description_de": "Briefeinwurf Zürich, Röschibachstrasse", "address_street": "Röschibachstrasse 81", "id": "003BE_00329476", "poityp_en": "Letterbox", "address_kantoncode": "ZH", "groupename_de": null, "address_zip": "8037", "address_gemeindeid": "261", "address_countrycode": "CH", "service_de": null, "address_city": "Zürich", "poityp_de": "Briefeinwurf" }, "geometry": { "type": "Point", "coordinates": [ 8.52909614, 47.39351835 ] } },
{ "type": "Feature", "properties": { "description_de": "Briefeinwurf Zürich, Bushaltestelle Waidspital", "address_street": "Tièchestrasse 91", "id": "003BE_00329482", "poityp_en": "Letterbox", "address_kantoncode": "ZH", "groupename_de": null, "address_zip": "8037", "address_gemeindeid": "261", "address_countrycode": "CH", "service_de": null, "address_city": "Zürich", "poityp_de": "Briefeinwurf" }, "geometry": { "type": "Point", "coordinates": [ 8.52169417, 47.3990021 ] } },
{ "type": "Feature", "properties": { "description_de": "Briefeinwurf Zürich, Tram-\/Bushaltestelle Bucheggplatz", "address_street": "Hofwiesenstrasse 114", "id": "003BE_00329483", "poityp_en": "Letterbox", "address_kantoncode": "ZH", "groupename_de": null, "address_zip": "8057", "address_gemeindeid": "261", "address_countrycode": "CH", "service_de": null, "address_city": "Zürich", "poityp_de": "Briefeinwurf" }, "geometry": { "type": "Point", "coordinates": [ 8.53320413, 47.39843403 ] } },
{ "type": "Feature", "properties": { "description_de": "Briefeinwurf Zürich, Kronenstrasse", "address_street": "Kronenstrasse 48", "id": "003BE_00329491", "poityp_en": "Letterbox", "address_kantoncode": "ZH", "groupename_de": null, "address_zip": "8006", "address_gemeindeid": "261", "address_countrycode": "CH", "service_de": null, "address_city": "Zürich", "poityp_de": "Briefeinwurf" }, "geometry": { "type": "Point", "coordinates": [ 8.53920096, 47.38789237 ] } },
{ "type": "Feature", "properties": { "description_de": "Briefeinwurf Zürich, Gloriastrasse", "address_street": "Gloriastrasse 19", "id": "003BE_00329494", "poityp_en": "Letterbox", "address_kantoncode": "ZH", "groupename_de": null, "address_zip": "8006", "address_gemeindeid": "261", "address_countrycode": "CH", "service_de": null, "address_city": "Zürich", "poityp_de": "Briefeinwurf" }, "geometry": { "type": "Point", "coordinates": [ 8.55155211, 47.37489029 ] } },
{ "type": "Feature", "properties": { "description_de": "Briefeinwurf Zürich, Universitätstrasse", "address_street": "Universitätstrasse 40", "id": "003BE_00329497", "poityp_en": "Letterbox", "address_kantoncode": "ZH", "groupename_de": null, "address_zip": "8006", "address_gemeindeid": "261", "address_countrycode": "CH", "service_de": null, "address_city": "Zürich", "poityp_de": "Briefeinwurf" }, "geometry": { "type": "Point", "coordinates": [ 8.54831487, 47.38050924 ] } },
{ "type": "Feature", "properties": { "description_de": "Briefeinwurf Zürich, Tram-\/Bushaltestelle Seilbahn Rigiblick", "address_street": "Universitätstrasse 120", "id": "003BE_00329498", "poityp_en": "Letterbox", "address_kantoncode": "ZH", "groupename_de": null, "address_zip": "8006", "address_gemeindeid": "261", "address_countrycode": "CH", "service_de": null, "address_city": "Zürich", "poityp_de": "Briefeinwurf" }, "geometry": { "type": "Point", "coordinates": [ 8.54863119, 47.3857162 ] } },
{ "type": "Feature", "properties": { "description_de": "Briefeinwurf Zürich, Blümlisalpstrasse", "address_street": "Blümlisalpstrasse 19", "id": "003BE_00329499", "poityp_en": "Letterbox", "address_kantoncode": "ZH", "groupename_de": null, "address_zip": "8006", "address_gemeindeid": "261", "address_countrycode": "CH", "service_de": null, "address_city": "Zürich", "poityp_de": "Briefeinwurf" }, "geometry": { "type": "Point", "coordinates": [ 8.54777918, 47.38830779 ] } },
{ "type": "Feature", "properties": { "description_de": "Briefeinwurf Zürich, Frohburgstrasse", "address_street": "Frohburgstrasse 64", "id": "003BE_00329500", "poityp_en": "Letterbox", "address_kantoncode": "ZH", "groupename_de": null, "address_zip": "8006", "address_gemeindeid": "261", "address_countrycode": "CH", "service_de": null, "address_city": "Zürich", "poityp_de": "Briefeinwurf" }, "geometry": { "type": "Point", "coordinates": [ 8.54953425, 47.3898372 ] } },
{ "type": "Feature", "properties": { "description_de": "Briefeinwurf Zürich, Tramhaltestelle Langmauerstrasse", "address_street": "Milchbuckstrasse 81", "id": "003BE_00329501", "poityp_en": "Letterbox", "address_kantoncode": "ZH", "groupename_de": null, "address_zip": "8057", "address_gemeindeid": "261", "address_countrycode": "CH", "service_de": null, "address_city": "Zürich", "poityp_de": "Briefeinwurf" }, "geometry": { "type": "Point", "coordinates": [ 8.54512104, 47.39386798 ] } },
{ "type": "Feature", "properties": { "description_de": "Briefeinwurf Zürich, Letzistrasse", "address_street": "Letzistrasse 50", "id": "003BE_00329503", "poityp_en": "Letterbox", "address_kantoncode": "ZH", "groupename_de": null, "address_zip": "8006", "address_gemeindeid": "261", "address_countrycode": "CH", "service_de": null, "address_city": "Zürich", "poityp_de": "Briefeinwurf" }, "geometry": { "type": "Point", "coordinates": [ 8.55025587, 47.39242896 ] } },
{ "type": "Feature", "properties": { "description_de": "Briefeinwurf Zürich, In der Hub", "address_street": "In der Hub 1", "id": "003BE_00329504", "poityp_en": "Letterbox", "address_kantoncode": "ZH", "groupename_de": null, "address_zip": "8057", "address_gemeindeid": "261", "address_countrycode": "CH", "service_de": null, "address_city": "Zürich", "poityp_de": "Briefeinwurf" }, "geometry": { "type": "Point", "coordinates": [ 8.55258927, 47.39652087 ] } },
{ "type": "Feature", "properties": { "description_de": "Briefeinwurf Zürich, Germaniastrasse", "address_street": "Germaniastrasse 62", "id": "003BE_00329507", "poityp_en": "Letterbox", "address_kantoncode": "ZH", "groupename_de": null, "address_zip": "8006", "address_gemeindeid": "261", "address_countrycode": "CH", "service_de": null, "address_city": "Zürich", "poityp_de": "Briefeinwurf" }, "geometry": { "type": "Point", "coordinates": [ 8.55249294, 47.38721991 ] } },
{ "type": "Feature", "properties": { "description_de": "Briefeinwurf Zürich, BE Bushalt. Rigiblick", "address_street": "Freudenbergstrasse 146", "id": "003BE_00329508", "poityp_en": "Letterbox", "address_kantoncode": "ZH", "groupename_de": null, "address_zip": "8044", "address_gemeindeid": "261", "address_countrycode": "CH", "service_de": null, "address_city": "Zürich", "poityp_de": "Briefeinwurf" }, "geometry": { "type": "Point", "coordinates": [ 8.55393504, 47.3872069 ] } },
{ "type": "Feature", "properties": { "description_de": "Briefeinwurf Zürich, Bushaltestelle Spyriplatz", "address_street": "Gladbachstrasse 41", "id": "003BE_00329512", "poityp_en": "Letterbox", "address_kantoncode": "ZH", "groupename_de": null, "address_zip": "8044", "address_gemeindeid": "261", "address_countrycode": "CH", "service_de": null, "address_city": "Zürich", "poityp_de": "Briefeinwurf" }, "geometry": { "type": "Point", "coordinates": [ 8.55207183, 47.3821507 ] } },
{ "type": "Feature", "properties": { "description_de": "Briefeinwurf Zürich, Tram-\/Bushaltestelle Kirche Fluntern", "address_street": "Zürichbergstrasse 75", "id": "003BE_00329519", "poityp_en": "Letterbox", "address_kantoncode": "ZH", "groupename_de": null, "address_zip": "8044", "address_gemeindeid": "261", "address_countrycode": "CH", "service_de": null, "address_city": "Zürich", "poityp_de": "Briefeinwurf" }, "geometry": { "type": "Point", "coordinates": [ 8.55970079, 47.37650981 ] } },
{ "type": "Feature", "properties": { "description_de": "Briefeinwurf Zürich, Filiale Zürich 52 Seebach", "address_street": "Bahnhaldenstrasse 5", "id": "003BE_00335998", "poityp_en": "Letterbox", "address_kantoncode": "ZH", "groupename_de": null, "address_zip": "8052", "address_gemeindeid": "261", "address_countrycode": "CH", "service_de": null, "address_city": "Zürich", "poityp_de": "Briefeinwurf" }, "geometry": { "type": "Point", "coordinates": [ 8.54684248, 47.41907104 ] } },
{ "type": "Feature", "properties": { "description_de": "Briefeinwurf Zürich, Filiale Zürich 1 Sihlpost", "address_street": "Kasernenstrasse 97", "id": "003BE_00335999", "poityp_en": "Letterbox", "address_kantoncode": "ZH", "groupename_de": null, "address_zip": "8004", "address_gemeindeid": "261", "address_countrycode": "CH", "service_de": null, "address_city": "Zürich", "poityp_de": "Briefeinwurf" }, "geometry": { "type": "Point", "coordinates": [ 8.53567175, 47.37749425 ] } },
{ "type": "Feature", "properties": { "description_de": "Briefeinwurf Zürich, Bushaltestelle Aspholz", "address_street": "Mühlackerstrasse 102", "id": "003BE_00340528", "poityp_en": "Letterbox", "address_kantoncode": "ZH", "groupename_de": null, "address_zip": "8046", "address_gemeindeid": "261", "address_countrycode": "CH", "service_de": null, "address_city": "Zürich", "poityp_de": "Briefeinwurf" }, "geometry": { "type": "Point", "coordinates": [ 8.49991758, 47.42522214 ] } },
{ "type": "Feature", "properties": { "description_de": "Briefeinwurf Zürich, Filiale Zürich West", "address_street": "Hardturmstrasse 126", "id": "003BE_00343073", "poityp_en": "Letterbox", "address_kantoncode": "ZH", "groupename_de": null, "address_zip": "8005", "address_gemeindeid": "261", "address_countrycode": "CH", "service_de": null, "address_city": "Zürich", "poityp_de": "Briefeinwurf" }, "geometry": { "type": "Point", "coordinates": [ 8.51309283, 47.39350363 ] } },
{ "type": "Feature", "properties": { "description_de": "Briefeinwurf Zürich, Weite Gasse", "address_street": "Weite Gasse 10", "id": "003BE_00343545", "poityp_en": "Letterbox", "address_kantoncode": "ZH", "groupename_de": null, "address_zip": "8001", "address_gemeindeid": "261", "address_countrycode": "CH", "service_de": null, "address_city": "Zürich", "poityp_de": "Briefeinwurf" }, "geometry": { "type": "Point", "coordinates": [ 8.54558133, 47.36863842 ] } },
{ "type": "Feature", "properties": { "description_de": "Briefeinwurf Zürich, Filiale Zürich 50 Oerlikon", "address_street": "Baumackerstrasse 42", "id": "003BE_00343710", "poityp_en": "Letterbox", "address_kantoncode": "ZH", "groupename_de": null, "address_zip": "8050", "address_gemeindeid": "261", "address_countrycode": "CH", "service_de": null, "address_city": "Zürich", "poityp_de": "Briefeinwurf" }, "geometry": { "type": "Point", "coordinates": [ 8.543204, 47.40945415 ] } },
{ "type": "Feature", "properties": { "description_de": "Briefeinwurf Zürich, Bahnhof Altstetten Unterführung 2", "address_street": "Vulkanplatz 31", "id": "003BE_00343717", "poityp_en": "Letterbox", "address_kantoncode": "ZH", "groupename_de": null, "address_zip": "8048", "address_gemeindeid": "261", "address_countrycode": "CH", "service_de": null, "address_city": "Zürich", "poityp_de": "Briefeinwurf" }, "geometry": { "type": "Point", "coordinates": [ 8.48925522, 47.39212165 ] } },
{ "type": "Feature", "properties": { "description_de": "Briefeinwurf Zürich, Filiale Zürich 51 Schwamendingen", "address_street": "Winterthurerstrasse 525", "id": "003BE_00342951", "poityp_en": "Letterbox", "address_kantoncode": "ZH", "groupename_de": null, "address_zip": "8051", "address_gemeindeid": "261", "address_countrycode": "CH", "service_de": null, "address_city": "Zürich", "poityp_de": "Briefeinwurf" }, "geometry": { "type": "Point", "coordinates": [ 8.57190551, 47.40438915 ] } },
{ "type": "Feature", "properties": { "description_de": "Briefeinwurf Zürich, Filiale Zürich 41 Leimbach", "address_street": "Leimbachstrasse 23", "id": "003BE_00342721", "poityp_en": "Letterbox", "address_kantoncode": "ZH", "groupename_de": null, "address_zip": "8041", "address_gemeindeid": "261", "address_countrycode": "CH", "service_de": null, "address_city": "Zürich", "poityp_de": "Briefeinwurf" }, "geometry": { "type": "Point", "coordinates": [ 8.51886323, 47.33605976 ] } },
{ "type": "Feature", "properties": { "description_de": "Briefeinwurf Zürich, Filiale Zürich 25 Urania", "address_street": "Uraniastrasse 7", "id": "003BE_00343020", "poityp_en": "Letterbox", "address_kantoncode": "ZH", "groupename_de": null, "address_zip": "8001", "address_gemeindeid": "261", "address_countrycode": "CH", "service_de": null, "address_city": "Zürich", "poityp_de": "Briefeinwurf" }, "geometry": { "type": "Point", "coordinates": [ 8.54015298, 47.37435188 ] } },
{ "type": "Feature", "properties": { "description_de": "Briefeinwurf Zürich, BE Tramhaltestelle Stauffacher", "address_street": "Badenerstrasse 21", "id": "003BE_00342067", "poityp_en": "Letterbox", "address_kantoncode": "ZH", "groupename_de": null, "address_zip": "8004", "address_gemeindeid": "261", "address_countrycode": "CH", "service_de": null, "address_city": "Zürich", "poityp_de": "Briefeinwurf" }, "geometry": { "type": "Point", "coordinates": [ 8.5296937, 47.37365685 ] } },
{ "type": "Feature", "properties": { "description_de": "Briefeinwurf Zürich, Haltestelle Hardbrücke 2", "address_street": "Hardstrasse 201", "id": "003BE_00342239", "poityp_en": "Letterbox", "address_kantoncode": "ZH", "groupename_de": null, "address_zip": "8005", "address_gemeindeid": "261", "address_countrycode": "CH", "service_de": null, "address_city": "Zürich", "poityp_de": "Briefeinwurf" }, "geometry": { "type": "Point", "coordinates": [ 8.51745557, 47.38620754 ] } },
{ "type": "Feature", "properties": { "description_de": "Briefeinwurf Zürich, Tramhaltestelle Toni-Areal", "address_street": "Pfingstweidstrasse 101", "id": "003BE_00342294", "poityp_en": "Letterbox", "address_kantoncode": "ZH", "groupename_de": null, "address_zip": "8005", "address_gemeindeid": "261", "address_countrycode": "CH", "service_de": null, "address_city": "Zürich", "poityp_de": "Briefeinwurf" }, "geometry": { "type": "Point", "coordinates": [ 8.50900061, 47.3902512 ] } },
{ "type": "Feature", "properties": { "description_de": "Briefeinwurf Zürich, Frauenklinik Maternité", "address_street": "Birmensdorferstrasse 501", "id": "003BE_00340916", "poityp_en": "Letterbox", "address_kantoncode": "ZH", "groupename_de": null, "address_zip": "8055", "address_gemeindeid": "261", "address_countrycode": "CH", "service_de": null, "address_city": "Zürich", "poityp_de": "Briefeinwurf" }, "geometry": { "type": "Point", "coordinates": [ 8.49546977, 47.36597292 ] } },
{ "type": "Feature", "properties": { "description_de": "Briefeinwurf Zürich, Bleicherweg", "address_street": "Bleicherweg 19", "id": "003BE_00341412", "poityp_en": "Letterbox", "address_kantoncode": "ZH", "groupename_de": null, "address_zip": "8002", "address_gemeindeid": "261", "address_countrycode": "CH", "service_de": null, "address_city": "Zürich", "poityp_de": "Briefeinwurf" }, "geometry": { "type": "Point", "coordinates": [ 8.53568958, 47.36780538 ] } },
{ "type": "Feature", "properties": { "description_de": "Briefeinwurf Zürich, Falkenstrasse", "address_street": "Falkenstrasse 11", "id": "003BE_00324760", "poityp_en": "Letterbox", "address_kantoncode": "ZH", "groupename_de": null, "address_zip": "8008", "address_gemeindeid": "261", "address_countrycode": "CH", "service_de": null, "address_city": "Zürich", "poityp_de": "Briefeinwurf" }, "geometry": { "type": "Point", "coordinates": [ 8.54776895, 47.36515248 ] } },
{ "type": "Feature", "properties": { "description_de": "Briefeinwurf Zürich, Central", "address_street": "Central 1", "id": "003BE_00329116", "poityp_en": "Letterbox", "address_kantoncode": "ZH", "groupename_de": null, "address_zip": "8001", "address_gemeindeid": "261", "address_countrycode": "CH", "service_de": null, "address_city": "Zürich", "poityp_de": "Briefeinwurf" }, "geometry": { "type": "Point", "coordinates": [ 8.54348771, 47.37667498 ] } },
{ "type": "Feature", "properties": { "description_de": "Briefeinwurf Zürich, Walchetor", "address_street": "Stampfenbachstrasse 19", "id": "003BE_00329117", "poityp_en": "Letterbox", "address_kantoncode": "ZH", "groupename_de": null, "address_zip": "8001", "address_gemeindeid": "261", "address_countrycode": "CH", "service_de": null, "address_city": "Zürich", "poityp_de": "Briefeinwurf" }, "geometry": { "type": "Point", "coordinates": [ 8.54342167, 47.37860058 ] } },
{ "type": "Feature", "properties": { "description_de": "Briefeinwurf Zürich, Bahnhofquai", "address_street": "Bahnhofquai 20", "id": "003BE_00329118", "poityp_en": "Letterbox", "address_kantoncode": "ZH", "groupename_de": null, "address_zip": "8001", "address_gemeindeid": "261", "address_countrycode": "CH", "service_de": null, "address_city": "Zürich", "poityp_de": "Briefeinwurf" }, "geometry": { "type": "Point", "coordinates": [ 8.54158968, 47.37735965 ] } },
{ "type": "Feature", "properties": { "description_de": "Briefeinwurf Zürich, Brunaustrasse", "address_street": "Brunaustrasse 6", "id": "003BE_00329135", "poityp_en": "Letterbox", "address_kantoncode": "ZH", "groupename_de": null, "address_zip": "8002", "address_gemeindeid": "261", "address_countrycode": "CH", "service_de": null, "address_city": "Zürich", "poityp_de": "Briefeinwurf" }, "geometry": { "type": "Point", "coordinates": [ 8.53203529, 47.35637385 ] } },
{ "type": "Feature", "properties": { "description_de": "Briefeinwurf Zürich, Tram-\/Bushaltestelle Morgental", "address_street": "Albisstrasse 46", "id": "003BE_00329137", "poityp_en": "Letterbox", "address_kantoncode": "ZH", "groupename_de": null, "address_zip": "8038", "address_gemeindeid": "261", "address_countrycode": "CH", "service_de": null, "address_city": "Zürich", "poityp_de": "Briefeinwurf" }, "geometry": { "type": "Point", "coordinates": [ 8.52991867, 47.3436926 ] } },
{ "type": "Feature", "properties": { "description_de": "Briefeinwurf Zürich, Bushaltestelle Verenastrasse", "address_street": "Butzenstrasse 42", "id": "003BE_00329139", "poityp_en": "Letterbox", "address_kantoncode": "ZH", "groupename_de": null, "address_zip": "8038", "address_gemeindeid": "261", "address_countrycode": "CH", "service_de": null, "address_city": "Zürich", "poityp_de": "Briefeinwurf" }, "geometry": { "type": "Point", "coordinates": [ 8.52531659, 47.34099965 ] } },
{ "type": "Feature", "properties": { "description_de": "Briefeinwurf Zürich, Entlisbergstrasse", "address_street": "Entlisbergstrasse 26", "id": "003BE_00329150", "poityp_en": "Letterbox", "address_kantoncode": "ZH", "groupename_de": null, "address_zip": "8038", "address_gemeindeid": "261", "address_countrycode": "CH", "service_de": null, "address_city": "Zürich", "poityp_de": "Briefeinwurf" }, "geometry": { "type": "Point", "coordinates": [ 8.5247344, 47.33762292 ] } },
{ "type": "Feature", "properties": { "description_de": "Briefeinwurf Zürich, Paradiesstrasse", "address_street": "Paradiesstrasse 3", "id": "003BE_00329151", "poityp_en": "Letterbox", "address_kantoncode": "ZH", "groupename_de": null, "address_zip": "8038", "address_gemeindeid": "261", "address_countrycode": "CH", "service_de": null, "address_city": "Zürich", "poityp_de": "Briefeinwurf" }, "geometry": { "type": "Point", "coordinates": [ 8.52938413, 47.33483013 ] } },
{ "type": "Feature", "properties": { "description_de": "Briefeinwurf Zürich, Bushaltestelle Stadtgrenze", "address_street": "Seestrasse 561", "id": "003BE_00329158", "poityp_en": "Letterbox", "address_kantoncode": "ZH", "groupename_de": null, "address_zip": "8038", "address_gemeindeid": "261", "address_countrycode": "CH", "service_de": null, "address_city": "Zürich", "poityp_de": "Briefeinwurf" }, "geometry": { "type": "Point", "coordinates": [ 8.54128863, 47.33526665 ] } },
{ "type": "Feature", "properties": { "description_de": "Briefeinwurf Zürich, Müllerstrasse", "address_street": "Müllerstrasse 16", "id": "003BE_00329182", "poityp_en": "Letterbox", "address_kantoncode": "ZH", "groupename_de": null, "address_zip": "8004", "address_gemeindeid": "261", "address_countrycode": "CH", "service_de": null, "address_city": "Zürich", "poityp_de": "Briefeinwurf" }, "geometry": { "type": "Point", "coordinates": [ 8.53128562, 47.37418782 ] } },
{ "type": "Feature", "properties": { "description_de": "Briefeinwurf Zürich, Rennweg", "address_street": "Rennweg 57", "id": "003BE_00328815", "poityp_en": "Letterbox", "address_kantoncode": "ZH", "groupename_de": null, "address_zip": "8001", "address_gemeindeid": "261", "address_countrycode": "CH", "service_de": null, "address_city": "Zürich", "poityp_de": "Briefeinwurf" }, "geometry": { "type": "Point", "coordinates": [ 8.53882222, 47.37384014 ] } },
{ "type": "Feature", "properties": { "description_de": "Briefeinwurf Zürich, Brandschenkestrasse", "address_street": "Brandschenkestrasse 158", "id": "003BE_00328820", "poityp_en": "Letterbox", "address_kantoncode": "ZH", "groupename_de": null, "address_zip": "8002", "address_gemeindeid": "261", "address_countrycode": "CH", "service_de": null, "address_city": "Zürich", "poityp_de": "Briefeinwurf" }, "geometry": { "type": "Point", "coordinates": [ 8.52623232, 47.36430573 ] } },
{ "type": "Feature", "properties": { "description_de": "Briefeinwurf Zürich, Löwenstrasse", "address_street": "Löwenstrasse 7", "id": "003BE_00328822", "poityp_en": "Letterbox", "address_kantoncode": "ZH", "groupename_de": null, "address_zip": "8001", "address_gemeindeid": "261", "address_countrycode": "CH", "service_de": null, "address_city": "Zürich", "poityp_de": "Briefeinwurf" }, "geometry": { "type": "Point", "coordinates": [ 8.5345616, 47.37334992 ] } },
{ "type": "Feature", "properties": { "description_de": "Briefeinwurf Zürich, Schiffstation", "address_street": "Bürkliplatz 10", "id": "003BE_00328826", "poityp_en": "Letterbox", "address_kantoncode": "ZH", "groupename_de": null, "address_zip": "8001", "address_gemeindeid": "261", "address_countrycode": "CH", "service_de": null, "address_city": "Zürich", "poityp_de": "Briefeinwurf" }, "geometry": { "type": "Point", "coordinates": [ 8.54076963, 47.36613159 ] } },
{ "type": "Feature", "properties": { "description_de": "Briefeinwurf Zürich, BE Tramhaltestelle Löwenplatz", "address_street": "Löwenstrasse 49", "id": "003BE_00328828", "poityp_en": "Letterbox", "address_kantoncode": "ZH", "groupename_de": null, "address_zip": "8001", "address_gemeindeid": "261", "address_countrycode": "CH", "service_de": null, "address_city": "Zürich", "poityp_de": "Briefeinwurf" }, "geometry": { "type": "Point", "coordinates": [ 8.5371452, 47.37618765 ] } },
{ "type": "Feature", "properties": { "description_de": "Briefeinwurf Zürich, Tramhaltestelle Tunnelstrasse", "address_street": "Bleicherweg 47", "id": "003BE_00328829", "poityp_en": "Letterbox", "address_kantoncode": "ZH", "groupename_de": null, "address_zip": "8002", "address_gemeindeid": "261", "address_countrycode": "CH", "service_de": null, "address_city": "Zürich", "poityp_de": "Briefeinwurf" }, "geometry": { "type": "Point", "coordinates": [ 8.53245446, 47.36584092 ] } },
{ "type": "Feature", "properties": { "description_de": "Briefeinwurf Zürich, Tram-\/Bushaltestelle Leutschenbach", "address_street": "Thurgauerstrasse 40", "id": "003BE_00332503", "poityp_en": "Letterbox", "address_kantoncode": "ZH", "groupename_de": null, "address_zip": "8050", "address_gemeindeid": "261", "address_countrycode": "CH", "service_de": null, "address_city": "Zürich", "poityp_de": "Briefeinwurf" }, "geometry": { "type": "Point", "coordinates": [ 8.55175921, 47.41481682 ] } },
{ "type": "Feature", "properties": { "description_de": "Briefeinwurf Zürich, Bushaltestelle Neuaffoltern", "address_street": "Wehntalerstrasse 296", "id": "003BE_00332529", "poityp_en": "Letterbox", "address_kantoncode": "ZH", "groupename_de": null, "address_zip": "8046", "address_gemeindeid": "261", "address_countrycode": "CH", "service_de": null, "address_city": "Zürich", "poityp_de": "Briefeinwurf" }, "geometry": { "type": "Point", "coordinates": [ 8.52459872, 47.41223267 ] } },
{ "type": "Feature", "properties": { "description_de": "Briefeinwurf Zürich, Bahnhof Stadelhofen", "address_street": "Stadelhoferstrasse 8", "id": "003BE_00332533", "poityp_en": "Letterbox", "address_kantoncode": "ZH", "groupename_de": null, "address_zip": "8001", "address_gemeindeid": "261", "address_countrycode": "CH", "service_de": null, "address_city": "Zürich", "poityp_de": "Briefeinwurf" }, "geometry": { "type": "Point", "coordinates": [ 8.54885314, 47.36635462 ] } },
{ "type": "Feature", "properties": { "description_de": "Briefeinwurf Zürich, Carl-Spitteler-Strasse", "address_street": "Carl-Spitteler-Strasse 70", "id": "003BE_00332540", "poityp_en": "Letterbox", "address_kantoncode": "ZH", "groupename_de": null, "address_zip": "8053", "address_gemeindeid": "261", "address_countrycode": "CH", "service_de": null, "address_city": "Zürich", "poityp_de": "Briefeinwurf" }, "geometry": { "type": "Point", "coordinates": [ 8.59444095, 47.35574729 ] } },
{ "type": "Feature", "properties": { "description_de": "Briefeinwurf Zürich, Filiale Zürich 27 Enge", "address_street": "Gutenbergstrasse 1", "id": "003BE_00332484", "poityp_en": "Letterbox", "address_kantoncode": "ZH", "groupename_de": null, "address_zip": "8002", "address_gemeindeid": "261", "address_countrycode": "CH", "service_de": null, "address_city": "Zürich", "poityp_de": "Briefeinwurf" }, "geometry": { "type": "Point", "coordinates": [ 8.53081234, 47.36498033 ] } },
{ "type": "Feature", "properties": { "description_de": "Briefeinwurf Zürich, Füsslistrasse", "address_street": "Füsslistrasse 6", "id": "003BE_00332097", "poityp_en": "Letterbox", "address_kantoncode": "ZH", "groupename_de": null, "address_zip": "8001", "address_gemeindeid": "261", "address_countrycode": "CH", "service_de": null, "address_city": "Zürich", "poityp_de": "Briefeinwurf" }, "geometry": { "type": "Point", "coordinates": [ 8.53706017, 47.37315259 ] } },
{ "type": "Feature", "properties": { "description_de": "Briefeinwurf Zürich, Bahnhofstrasse", "address_street": "Bahnhofstrasse 45", "id": "003BE_00332098", "poityp_en": "Letterbox", "address_kantoncode": "ZH", "groupename_de": null, "address_zip": "8001", "address_gemeindeid": "261", "address_countrycode": "CH", "service_de": null, "address_city": "Zürich", "poityp_de": "Briefeinwurf" }, "geometry": { "type": "Point", "coordinates": [ 8.53834088, 47.37200971 ] } },
{ "type": "Feature", "properties": { "description_de": "Briefeinwurf Zürich, Neue Börse Zürich", "address_street": "Selnaustrasse 30", "id": "003BE_00332099", "poityp_en": "Letterbox", "address_kantoncode": "ZH", "groupename_de": null, "address_zip": "8001", "address_gemeindeid": "261", "address_countrycode": "CH", "service_de": null, "address_city": "Zürich", "poityp_de": "Briefeinwurf" }, "geometry": { "type": "Point", "coordinates": [ 8.53126092, 47.37117287 ] } },
{ "type": "Feature", "properties": { "description_de": "Briefeinwurf Zürich, Aargauerstrasse", "address_street": "Aargauerstrasse 1", "id": "003BE_00332111", "poityp_en": "Letterbox", "address_kantoncode": "ZH", "groupename_de": null, "address_zip": "8048", "address_gemeindeid": "261", "address_countrycode": "CH", "service_de": null, "address_city": "Zürich", "poityp_de": "Briefeinwurf" }, "geometry": { "type": "Point", "coordinates": [ 8.50035283, 47.39192669 ] } },
{ "type": "Feature", "properties": { "description_de": "Briefeinwurf Zürich, Bushaltestelle Schulhaus Buchlern", "address_street": "Rautistrasse 203", "id": "003BE_00332120", "poityp_en": "Letterbox", "address_kantoncode": "ZH", "groupename_de": null, "address_zip": "8048", "address_gemeindeid": "261", "address_countrycode": "CH", "service_de": null, "address_city": "Zürich", "poityp_de": "Briefeinwurf" }, "geometry": { "type": "Point", "coordinates": [ 8.47874601, 47.38377936 ] } },
{ "type": "Feature", "properties": { "description_de": "Briefeinwurf Zürich, Bushaltestelle Rautistrasse", "address_street": "Altstetterstrasse 212", "id": "003BE_00332121", "poityp_en": "Letterbox", "address_kantoncode": "ZH", "groupename_de": null, "address_zip": "8048", "address_gemeindeid": "261", "address_countrycode": "CH", "service_de": null, "address_city": "Zürich", "poityp_de": "Briefeinwurf" }, "geometry": { "type": "Point", "coordinates": [ 8.48384017, 47.38279431 ] } },
{ "type": "Feature", "properties": { "description_de": "Briefeinwurf Zürich, Tram-\/Bushaltestelle Kappeli", "address_street": "Badenerstrasse 585", "id": "003BE_00332122", "poityp_en": "Letterbox", "address_kantoncode": "ZH", "groupename_de": null, "address_zip": "8048", "address_gemeindeid": "261", "address_countrycode": "CH", "service_de": null, "address_city": "Zürich", "poityp_de": "Briefeinwurf" }, "geometry": { "type": "Point", "coordinates": [ 8.49505995, 47.38491946 ] } },
{ "type": "Feature", "properties": { "description_de": "Briefeinwurf Zürich, Freihofstrasse", "address_street": "Freihofstrasse 40", "id": "003BE_00332124", "poityp_en": "Letterbox", "address_kantoncode": "ZH", "groupename_de": null, "address_zip": "8048", "address_gemeindeid": "261", "address_countrycode": "CH", "service_de": null, "address_city": "Zürich", "poityp_de": "Briefeinwurf" }, "geometry": { "type": "Point", "coordinates": [ 8.49910334, 47.38351697 ] } },
{ "type": "Feature", "properties": { "description_de": "Briefeinwurf Zürich, Dialogweg", "address_street": "Dialogweg 11", "id": "003BE_00332131", "poityp_en": "Letterbox", "address_kantoncode": "ZH", "groupename_de": null, "address_zip": "8050", "address_gemeindeid": "261", "address_countrycode": "CH", "service_de": null, "address_city": "Zürich", "poityp_de": "Briefeinwurf" }, "geometry": { "type": "Point", "coordinates": [ 8.55933987, 47.41446834 ] } },
{ "type": "Feature", "properties": { "description_de": "Briefeinwurf Zürich, Bushaltestelle Schürgistrasse", "address_street": "Roswiesenstrasse 155", "id": "003BE_00332132", "poityp_en": "Letterbox", "address_kantoncode": "ZH", "groupename_de": null, "address_zip": "8051", "address_gemeindeid": "261", "address_countrycode": "CH", "service_de": null, "address_city": "Zürich", "poityp_de": "Briefeinwurf" }, "geometry": { "type": "Point", "coordinates": [ 8.58026254, 47.40850496 ] } },
{ "type": "Feature", "properties": { "description_de": "Briefeinwurf Zürich, Filiale Zürich Hirzenbach", "address_street": "Hirzenbachstrasse 40", "id": "003BE_00332135", "poityp_en": "Letterbox", "address_kantoncode": "ZH", "groupename_de": null, "address_zip": "8051", "address_gemeindeid": "261", "address_countrycode": "CH", "service_de": null, "address_city": "Zürich", "poityp_de": "Briefeinwurf" }, "geometry": { "type": "Point", "coordinates": [ 8.5889988, 47.40317958 ] } },
{ "type": "Feature", "properties": { "description_de": "Briefeinwurf Zürich, Tramhaltestelle Glattwiesen", "address_street": "Dübendorfstrasse 153", "id": "003BE_00332138", "poityp_en": "Letterbox", "address_kantoncode": "ZH", "groupename_de": null, "address_zip": "8051", "address_gemeindeid": "261", "address_countrycode": "CH", "service_de": null, "address_city": "Zürich", "poityp_de": "Briefeinwurf" }, "geometry": { "type": "Point", "coordinates": [ 8.58136172, 47.4018035 ] } },
{ "type": "Feature", "properties": { "description_de": "Briefeinwurf Zürich, Bushaltestelle Friedrichstrasse", "address_street": "Winterthurerstrasse 454", "id": "003BE_00332139", "poityp_en": "Letterbox", "address_kantoncode": "ZH", "groupename_de": null, "address_zip": "8051", "address_gemeindeid": "261", "address_countrycode": "CH", "service_de": null, "address_city": "Zürich", "poityp_de": "Briefeinwurf" }, "geometry": { "type": "Point", "coordinates": [ 8.56788456, 47.40377366 ] } },
{ "type": "Feature", "properties": { "description_de": "Briefeinwurf Zürich, Murwiesenstrasse", "address_street": "Murwiesenstrasse 45", "id": "003BE_00332141", "poityp_en": "Letterbox", "address_kantoncode": "ZH", "groupename_de": null, "address_zip": "8057", "address_gemeindeid": "261", "address_countrycode": "CH", "service_de": null, "address_city": "Zürich", "poityp_de": "Briefeinwurf" }, "geometry": { "type": "Point", "coordinates": [ 8.55376476, 47.40148204 ] } },
{ "type": "Feature", "properties": { "description_de": "Briefeinwurf Zürich, Ecke Viktoriastrasse", "address_street": "Winterthurerstrasse 253", "id": "003BE_00332143", "poityp_en": "Letterbox", "address_kantoncode": "ZH", "groupename_de": null, "address_zip": "8057", "address_gemeindeid": "261", "address_countrycode": "CH", "service_de": null, "address_city": "Zürich", "poityp_de": "Briefeinwurf" }, "geometry": { "type": "Point", "coordinates": [ 8.55058615, 47.40146769 ] } },
{ "type": "Feature", "properties": { "description_de": "Briefeinwurf Zürich, Bushaltestelle Oberwiesenstrasse", "address_street": "Regensbergstrasse 223", "id": "003BE_00332145", "poityp_en": "Letterbox", "address_kantoncode": "ZH", "groupename_de": null, "address_zip": "8050", "address_gemeindeid": "261", "address_countrycode": "CH", "service_de": null, "address_city": "Zürich", "poityp_de": "Briefeinwurf" }, "geometry": { "type": "Point", "coordinates": [ 8.5328763, 47.41040689 ] } },
{ "type": "Feature", "properties": { "description_de": "Briefeinwurf Zürich, Birchstrasse", "address_street": "Birchstrasse 4", "id": "003BE_00332151", "poityp_en": "Letterbox", "address_kantoncode": "ZH", "groupename_de": null, "address_zip": "8057", "address_gemeindeid": "261", "address_countrycode": "CH", "service_de": null, "address_city": "Zürich", "poityp_de": "Briefeinwurf" }, "geometry": { "type": "Point", "coordinates": [ 8.53457948, 47.4039224 ] } },
{ "type": "Feature", "properties": { "description_de": "Briefeinwurf Zürich, Ecke Zürichholzstrasse", "address_street": "Berninastrasse 85", "id": "003BE_00332153", "poityp_en": "Letterbox", "address_kantoncode": "ZH", "groupename_de": null, "address_zip": "8057", "address_gemeindeid": "261", "address_countrycode": "CH", "service_de": null, "address_city": "Zürich", "poityp_de": "Briefeinwurf" }, "geometry": { "type": "Point", "coordinates": [ 8.54242538, 47.40487229 ] } },